__time,/odrive_axis5/controller_status/active_errors,/odrive_axis5/controller_status/axis_state,/odrive_axis5/controller_status/iq_measured,/odrive_axis5/controller_status/iq_setpoint,/odrive_axis5/controller_status/pos_estimate,/odrive_axis5/controller_status/procedure_result,/odrive_axis5/controller_status/torque_estimate,/odrive_axis5/controller_status/torque_target,/odrive_axis5/controller_status/trajectory_done_flag,/odrive_axis5/controller_status/vel_estimate,/odrive_axis5/odrive_status/active_errors,/odrive_axis5/odrive_status/bus_current,/odrive_axis5/odrive_status/bus_voltage,/odrive_axis5/odrive_status/disarm_reason,/odrive_axis5/odrive_status/fet_temperature,/odrive_axis5/odrive_status/motor_temperature
1766086691.218604,,,,,,,,,,,0.000000000,0.000000000,25.923114777,0.000000000,25.032043457,22.504608154
1766086691.318683,,,,,,,,,,,0.000000000,0.000000000,25.934535980,0.000000000,25.035675049,22.504608154
1766086691.418639,,,,,,,,,,,0.000000000,0.000040227,25.925397873,0.000000000,25.037231445,22.504608154
1766086691.458822,0.000000000,8.000000000,0.044549461,0.000000000,-25.364210129,1.000000000,0.042347591,0.000000000,1.000000000,0.000000000,,,,,,
1766086691.518558,,,,,,,,,,,0.000000000,0.000084989,25.927682877,0.000000000,25.040954590,22.504608154
1766086691.618734,,,,,,,,,,,0.000000000,0.000000000,25.934535980,0.000000000,25.042999268,22.504608154
1766086691.708853,0.000000000,8.000000000,-0.006668804,0.000000000,-25.364210129,1.000000000,-0.006339197,0.000000000,1.000000000,0.000000000,,,,,,
1766086691.723115,,,,,,,,,,,0.000000000,0.000032093,25.913976669,0.000000000,25.044433594,22.504608154
1766086691.823449,,,,,,,,,,,0.000000000,0.000038760,25.923114777,0.000000000,25.046203613,22.504608154
1766086691.918728,,,,,,,,,,,0.000000000,0.000000000,25.925397873,0.000000000,25.050659180,22.504608154
1766086691.958904,0.000000000,8.000000000,0.040631387,0.000000000,-25.364210129,1.000000000,0.038623165,0.000000000,1.000000000,0.000000000,,,,,,
1766086692.018702,,,,,,,,,,,0.000000000,0.000000000,25.916261673,0.000000000,25.052032471,22.504608154
1766086692.118715,,,,,,,,,,,0.000000000,0.000012908,25.932250977,0.000000000,25.053710938,22.504608154
1766086692.208911,0.000000000,8.000000000,0.107735395,0.000000000,-25.364210129,1.000000000,0.102410540,0.000000000,1.000000000,0.000000000,,,,,,
1766086692.218711,,,,,,,,,,,0.000000000,0.000000000,25.932250977,0.000000000,25.056243896,22.504608154
1766086692.318801,,,,,,,,,,,0.000000000,0.000000000,25.943674088,0.000000000,25.058288574,22.504608154
1766086692.419568,,,,,,,,,,,0.000000000,0.000000000,25.927682877,0.000000000,25.060333252,22.504608154
1766086692.458930,0.000000000,8.000000000,0.025178581,0.000000000,-25.364210129,1.000000000,0.023934122,0.000000000,1.000000000,0.000000000,,,,,,
1766086692.523614,,,,,,,,,,,0.000000000,0.000000000,26.231504440,0.000000000,25.062530518,22.504608154
1766086692.617775,,,,,,,,,,,0.000000000,0.000000000,25.932250977,0.000000000,25.066009521,22.504608154
1766086692.707790,0.000000000,8.000000000,0.104739048,0.000000000,-25.364210129,1.000000000,0.099562287,0.000000000,1.000000000,0.000000000,,,,,,
1766086692.717784,,,,,,,,,,,0.000000000,0.000000000,25.925397873,0.000000000,25.066986084,22.504608154
1766086692.817569,,,,,,,,,,,0.000000000,0.000000000,25.932250977,0.000000000,25.070007324,22.504608154
1766086692.917706,,,,,,,,,,,0.000000000,0.000000000,25.936820984,0.000000000,25.071075439,22.504608154
1766086692.957964,0.000000000,8.000000000,0.002760038,0.000000000,-25.364210129,1.000000000,0.002623625,0.000000000,1.000000000,0.000000000,,,,,,
1766086693.021963,,,,,,,,,,,0.000000000,0.000000000,25.920829773,0.000000000,25.073333740,22.504608154
1766086693.117721,,,,,,,,,,,0.000000000,0.000000000,25.929967880,0.000000000,25.074707031,22.504608154
1766086693.208108,0.000000000,8.000000000,-0.001568869,0.000000000,-25.364210129,1.000000000,-0.001491323,0.000000000,1.000000000,0.000000000,,,,,,
1766086693.217705,,,,,,,,,,,0.000000000,0.000000000,25.945957184,0.000000000,25.075500488,22.504608154
1766086693.317796,,,,,,,,,,,0.000000000,0.000000000,25.918544769,0.000000000,25.081237793,22.504608154
1766086693.419589,,,,,,,,,,,0.000000000,0.000000000,25.913976669,0.000000000,25.082153320,22.504608154
1766086693.462406,0.000000000,8.000000000,-0.005545534,0.000000000,-25.364210129,1.000000000,-0.005271446,0.000000000,1.000000000,0.000000000,,,,,,
1766086693.517870,,,,,,,,,,,0.000000000,0.000000000,25.916261673,0.000000000,25.084350586,22.504608154
1766086693.617692,,,,,,,,,,,0.000000000,0.000127512,25.918544769,0.000000000,25.084320068,22.504608154
1766086693.707955,0.000000000,8.000000000,-0.068697125,0.000000000,-25.364210129,1.000000000,-0.065301746,0.000000000,1.000000000,0.000000000,,,,,,
1766086693.717613,,,,,,,,,,,0.000000000,0.000004880,25.932250977,0.000000000,25.086090088,22.504608154
1766086693.816763,,,,,,,,,,,0.000000000,0.000016405,25.929967880,0.000000000,25.089111328,22.504608154
1766086693.916614,,,,,,,,,,,0.000000000,0.000000000,25.932250977,0.000000000,25.089813232,22.504608154
1766086693.956808,0.000000000,8.000000000,0.085388958,0.000000000,-25.364210129,1.000000000,0.081168585,0.000000000,1.000000000,0.000000000,,,,,,
1766086694.021163,,,,,,,,,,,0.000000000,0.000000000,25.913976669,0.000000000,25.094421387,22.504608154
1766086694.122321,,,,,,,,,,,0.000000000,0.000000000,25.923114777,0.000000000,25.096191406,22.504608154
1766086694.206816,0.000000000,8.000000000,0.006242111,0.000000000,-25.364210129,1.000000000,0.005933594,0.000000000,1.000000000,0.000000000,,,,,,
1766086694.216709,,,,,,,,,,,0.000000000,0.000000000,25.948242188,0.000000000,25.097015381,22.504608154
1766086694.316627,,,,,,,,,,,0.000000000,0.000061491,25.918544769,0.000000000,25.098602295,22.504608154
1766086694.416872,,,,,,,,,,,0.000000000,0.000000000,25.929967880,0.000000000,25.100646973,22.504608154
1766086694.457489,0.000000000,8.000000000,-0.073669471,0.000000000,-25.364210129,1.000000000,-0.070028335,0.000000000,1.000000000,0.000000000,,,,,,
1766086694.516636,,,,,,,,,,,0.000000000,0.000000000,25.913976669,0.000000000,25.104187012,22.504608154
1766086694.616797,,,,,,,,,,,0.000000000,0.000000000,25.941389084,0.000000000,25.103851318,22.504608154
1766086694.707013,0.000000000,8.000000000,0.200311750,0.000000000,-25.364210129,1.000000000,0.190411270,0.000000000,1.000000000,0.000000000,,,,,,
1766086694.716840,,,,,,,,,,,0.000000000,0.000000000,25.939104080,0.000000000,25.105133057,22.504608154
1766086694.820163,,,,,,,,,,,0.000000000,0.000000000,25.925397873,0.000000000,25.105926514,22.504608154
1766086694.920333,,,,,,,,,,,0.000000000,0.000000000,25.916261673,0.000000000,25.109191895,22.504608154
1766086694.956833,0.000000000,8.000000000,-0.023919627,0.000000000,-25.364210129,1.000000000,-0.022737391,0.000000000,1.000000000,0.000000000,,,,,,
1766086695.022632,,,,,,,,,,,0.000000000,-0.000000000,25.916261673,0.000000000,25.109771729,22.504608154
1766086695.115903,,,,,,,,,,,0.000000000,0.000038196,25.934535980,0.000000000,25.113128662,22.504608154
1766086695.205672,0.000000000,8.000000000,0.053925693,0.000000000,-25.364210129,1.000000000,0.051260397,0.000000000,1.000000000,0.000000000,,,,,,
1766086695.215658,,,,,,,,,,,0.000000000,0.000000000,25.925397873,0.000000000,25.114379883,22.504608154
1766086695.317683,,,,,,,,,,,0.000000000,0.000000000,25.925397873,0.000000000,25.115203857,22.504608154
1766086695.418823,,,,,,,,,,,0.000000000,0.000000000,25.913976669,0.000000000,25.118164063,22.504608154
1766086695.455943,0.000000000,8.000000000,0.182259291,0.000000000,-25.364210129,1.000000000,0.173251078,0.000000000,1.000000000,0.000000000,,,,,,
1766086695.515831,,,,,,,,,,,0.000000000,0.000000000,25.941389084,0.000000000,25.119262695,22.504608154
1766086695.615777,,,,,,,,,,,0.000000000,0.000000000,25.927682877,0.000000000,25.120971680,22.504608154
1766086695.706148,0.000000000,8.000000000,-0.125190482,0.000000000,-25.364210129,1.000000000,-0.119002901,0.000000000,1.000000000,0.000000000,,,,,,
1766086695.715751,,,,,,,,,,,0.000000000,0.000043695,25.918544769,0.000000000,25.123809814,22.504608154
1766086695.815798,,,,,,,,,,,0.000000000,0.000000000,25.929967880,0.000000000,25.124114990,22.504608154
1766086695.918685,,,,,,,,,,,0.000000000,0.000000000,25.920829773,0.000000000,25.125671387,22.504608154
1766086695.955849,0.000000000,8.000000000,-0.012532845,0.000000000,-25.364210129,1.000000000,-0.011913404,0.000000000,1.000000000,0.000000000,,,,,,
1766086696.020068,,,,,,,,,,,0.000000000,-0.000000000,25.927682877,0.000000000,25.127716064,22.504608154
1766086696.115717,,,,,,,,,,,0.000000000,0.000000000,25.918544769,0.000000000,25.127929688,22.504608154
1766086696.205898,0.000000000,8.000000000,-0.013606293,0.000000000,-25.364210129,1.000000000,-0.012933798,0.000000000,1.000000000,0.000000000,,,,,,
1766086696.215533,,,,,,,,,,,0.000000000,0.000000000,25.932250977,0.000000000,25.130432129,22.504608154
1766086696.315592,,,,,,,,,,,0.000000000,0.000000000,25.934535980,0.000000000,25.130126953,22.504608154
1766086696.414616,,,,,,,,,,,0.000000000,0.000051488,25.925397873,0.000000000,25.131256104,22.504608154
1766086696.454695,0.000000000,8.000000000,0.057442099,0.000000000,-25.364210129,1.000000000,0.054603010,0.000000000,1.000000000,0.000000000,,,,,,
1766086696.519257,,,,,,,,,,,0.000000000,0.000000000,25.920829773,0.000000000,25.133575439,22.504608154
1766086696.620558,,,,,,,,,,,0.000000000,0.000000000,25.913976669,0.000000000,25.136016846,22.504608154
1766086696.704880,0.000000000,8.000000000,-0.022248864,0.000000000,-25.364210129,1.000000000,-0.021149203,0.000000000,1.000000000,0.000000000,,,,,,
1766086696.714522,,,,,,,,,,,0.000000000,0.000000000,25.927682877,0.000000000,25.137176514,22.504608154
1766086696.814642,,,,,,,,,,,0.000000000,0.000000000,25.925397873,0.000000000,25.137786865,22.504608154
1766086696.914583,,,,,,,,,,,0.000000000,-0.000000000,25.932250977,0.000000000,25.141448975,22.504608154
1766086696.955086,0.000000000,8.000000000,0.175316110,0.000000000,-25.364210129,1.000000000,0.166651070,0.000000000,1.000000000,0.000000000,,,,,,
1766086697.014703,,,,,,,,,,,0.000000000,0.000000000,25.925397873,0.000000000,25.142364502,22.504608154
1766086697.114739,,,,,,,,,,,0.000000000,0.000000000,25.920829773,0.000000000,25.143798828,22.504608154
1766086697.204893,0.000000000,8.000000000,-0.119609386,0.000000000,-25.364210129,1.000000000,-0.113697655,0.000000000,1.000000000,0.000000000,,,,,,
1766086697.214705,,,,,,,,,,,0.000000000,0.000000000,25.948242188,0.000000000,25.143463135,22.504608154
1766086697.317975,,,,,,,,,,,0.000000000,0.000066065,25.929967880,0.000000000,25.146820068,22.504608154
1766086697.419426,,,,,,,,,,,0.000000000,0.000006334,25.934535980,0.000000000,25.146179199,22.504608154
1766086697.454723,0.000000000,8.000000000,0.044135854,0.000000000,-25.364210129,1.000000000,0.041954428,0.000000000,1.000000000,0.000000000,,,,,,
1766086697.514765,,,,,,,,,,,0.000000000,0.000000000,26.558170319,0.000000000,25.148498535,22.504608154
1766086697.614783,,,,,,,,,,,0.000000000,0.000000000,25.955095291,0.000000000,25.151794434,22.504608154
1766086697.703856,0.000000000,8.000000000,0.053617463,0.000000000,-25.364210129,1.000000000,0.050967403,0.000000000,1.000000000,0.000000000,,,,,,
1766086697.713694,,,,,,,,,,,0.000000000,0.000000000,25.927682877,0.000000000,25.150482178,22.504608154
1766086697.813970,,,,,,,,,,,0.000000000,0.000000000,25.929967880,0.000000000,25.152740479,22.504608154
1766086697.915740,,,,,,,,,,,0.000000000,0.000000000,25.904838562,0.000000000,25.155181885,22.504608154
1766086697.956536,0.000000000,8.000000000,-0.017310420,0.000000000,-25.364210129,1.000000000,-0.016454848,0.000000000,1.000000000,0.000000000,,,,,,
1766086698.018053,,,,,,,,,,,0.000000000,0.000000000,25.929967880,0.000000000,25.154113770,22.504608154
1766086698.118378,,,,,,,,,,,0.000000000,-0.000000000,25.936820984,0.000000000,25.158813477,22.504608154
1766086698.203741,0.000000000,8.000000000,0.034413744,0.000000000,-25.364210129,1.000000000,0.032712836,0.000000000,1.000000000,0.000000000,,,,,,
1766086698.219519,,,,,,,,,,,0.000000000,0.000000000,25.923114777,0.000000000,25.158874512,22.504608154
1766086698.313868,,,,,,,,,,,0.000000000,0.000000000,25.939104080,0.000000000,25.157257080,22.504608154
1766086698.413807,,,,,,,,,,,0.000000000,0.000000000,25.916261673,0.000000000,25.160552979,22.504608154
1766086698.453781,0.000000000,8.000000000,-0.203923464,0.000000000,-25.364210129,1.000000000,-0.193844482,0.000000000,1.000000000,0.000000000,,,,,,
1766086698.513955,,,,,,,,,,,0.000000000,0.000000000,25.913976669,0.000000000,25.162231445,22.504608154
1766086698.616807,,,,,,,,,,,0.000000000,0.000000000,25.929967880,0.000000000,25.162963867,22.504608154
1766086698.703909,0.000000000,8.000000000,-0.094677247,0.000000000,-25.364210129,1.000000000,-0.089997798,0.000000000,1.000000000,0.000000000,,,,,,
1766086698.713846,,,,,,,,,,,0.000000000,0.000000000,25.913976669,0.000000000,25.164916992,22.504608154
1766086698.813751,,,,,,,,,,,0.000000000,0.000000000,25.925397873,0.000000000,25.164947510,22.504608154
1766086698.913701,,,,,,,,,,,0.000000000,0.000005870,25.936820984,0.000000000,25.166412354,22.504608154
1766086698.953908,0.000000000,8.000000000,-0.057200197,0.000000000,-25.364210129,1.000000000,-0.054373059,0.000000000,1.000000000,0.000000000,,,,,,
1766086699.012799,,,,,,,,,,,0.000000000,0.000000000,25.929967880,0.000000000,25.167449951,22.504608154
1766086699.112701,,,,,,,,,,,0.000000000,0.000000000,25.929967880,0.000000000,25.169464111,22.504608154
1766086699.203404,0.000000000,8.000000000,0.043496892,0.000000000,-25.364210129,1.000000000,0.041347042,0.000000000,1.000000000,0.000000000,,,,,,
1766086699.212627,,,,,,,,,,,0.000000000,0.000001001,25.923114777,0.000000000,25.170318604,22.504608154
1766086699.317292,,,,,,,,,,,0.000000000,0.000014548,25.929967880,0.000000000,25.171875000,22.504608154
1766086699.417703,,,,,,,,,,,0.000000000,0.000032816,25.929967880,0.000000000,25.170867920,22.504608154
1766086699.452820,0.000000000,8.000000000,0.084872305,0.000000000,-25.364210129,1.000000000,0.080677465,0.000000000,1.000000000,0.000000000,,,,,,
1766086699.512617,,,,,,,,,,,0.000000000,0.000000000,25.911691666,0.000000000,25.173767090,22.504608154
1766086699.612679,,,,,,,,,,,0.000000000,0.000102457,25.913976669,0.000000000,25.174438477,22.504608154
1766086699.703268,0.000000000,8.000000000,0.018986866,0.000000000,-25.364210129,1.000000000,0.018048435,0.000000000,1.000000000,0.000000000,,,,,,
1766086699.712662,,,,,,,,,,,0.000000000,0.000000000,25.923114777,0.000000000,25.175903320,22.504608154
1766086699.816265,,,,,,,,,,,0.000000000,0.000000000,25.918544769,0.000000000,25.177795410,22.504608154
1766086699.917482,,,,,,,,,,,0.000000000,0.000000000,25.916261673,0.000000000,25.177490234,22.504608154
1766086699.952822,0.000000000,8.000000000,-0.087529793,0.000000000,-25.364210129,1.000000000,-0.083203614,0.000000000,1.000000000,0.000000000,,,,,,
1766086700.018548,,,,,,,,,,,0.000000000,0.000000000,25.929967880,0.000000000,25.180847168,22.504608154
1766086700.112743,,,,,,,,,,,0.000000000,0.000000000,25.918544769,0.000000000,25.180145264,22.504608154
1766086700.202905,0.000000000,8.000000000,-0.019064132,0.000000000,-25.364210129,1.000000000,-0.018121883,0.000000000,1.000000000,0.000000000,,,,,,
1766086700.212600,,,,,,,,,,,0.000000000,0.000000000,25.943674088,0.000000000,25.183380127,22.504608154
1766086700.311640,,,,,,,,,,,0.000000000,0.000000000,25.932250977,0.000000000,25.184509277,22.504608154
1766086700.416283,,,,,,,,,,,0.000000000,0.000022363,25.909408569,0.000000000,25.183410645,22.504608154
1766086700.451973,0.000000000,8.000000000,-0.020627633,0.000000000,-25.364210129,1.000000000,-0.019608110,0.000000000,1.000000000,0.000000000,,,,,,
1766086700.511647,,,,,,,,,,,0.000000000,0.000000000,25.923114777,0.000000000,25.184692383,22.504608154
1766086700.611680,,,,,,,,,,,0.000000000,0.000000000,25.920829773,0.000000000,25.183898926,22.504608154
1766086700.701781,0.000000000,8.000000000,0.159953669,0.000000000,-25.364210129,1.000000000,0.152047902,0.000000000,1.000000000,0.000000000,,,,,,
1766086700.711726,,,,,,,,,,,0.000000000,0.000000000,25.920829773,0.000000000,25.185729980,22.504608154
1766086700.811637,,,,,,,,,,,0.000000000,0.000000000,25.929967880,0.000000000,25.188446045,22.504608154
1766086700.911619,,,,,,,,,,,0.000000000,0.000004259,25.959663391,0.000000000,25.189208984,22.504608154
1766086700.951799,0.000000000,8.000000000,-0.005047390,0.000000000,-25.364210129,1.000000000,-0.004797922,0.000000000,1.000000000,0.000000000,,,,,,
1766086701.012783,,,,,,,,,,,0.000000000,0.000000000,25.920829773,0.000000000,25.188995361,22.504608154
1766086701.117649,,,,,,,,,,,0.000000000,0.000000000,25.918544769,0.000000000,25.191406250,22.504608154
1766086701.202220,0.000000000,8.000000000,0.081170619,0.000000000,-25.364210129,1.000000000,0.077158742,0.000000000,1.000000000,0.000000000,,,,,,
1766086701.211624,,,,,,,,,,,0.000000000,0.000030927,25.920829773,0.000000000,25.190673828,22.504608154
1766086701.311932,,,,,,,,,,,0.000000000,0.000110009,25.918544769,0.000000000,25.193054199,22.504608154
1766086701.411802,,,,,,,,,,,0.000000000,0.000000000,25.918544769,0.000000000,25.193695068,22.504608154
1766086701.451751,0.000000000,8.000000000,-0.054074198,0.000000000,-25.364210129,1.000000000,-0.051401563,0.000000000,1.000000000,0.000000000,,,,,,
1766086701.511690,,,,,,,,,,,0.000000000,0.000000000,25.911691666,0.000000000,25.197357178,22.504608154
1766086701.614157,,,,,,,,,,,0.000000000,0.000000000,25.934535980,0.000000000,25.194244385,22.504608154
1766086701.700730,0.000000000,8.000000000,-0.062120676,0.000000000,-25.364210129,1.000000000,-0.059050344,0.000000000,1.000000000,0.000000000,,,,,,
1766086701.710772,,,,,,,,,,,0.000000000,0.000095925,25.920829773,0.000000000,25.197937012,22.504608154
1766086701.810853,,,,,,,,,,,0.000000000,0.000000000,25.913976669,0.000000000,25.198425293,22.504608154
1766086701.910762,,,,,,,,,,,0.000000000,0.000000000,25.920829773,0.000000000,25.200469971,22.504608154
1766086701.950942,0.000000000,8.000000000,0.127893180,0.000000000,-25.364210129,1.000000000,0.121572018,0.000000000,1.000000000,0.000000000,,,,,,
1766086702.010663,,,,,,,,,,,0.000000000,0.000000000,25.927682877,0.000000000,25.200469971,22.504608154
1766086702.113327,,,,,,,,,,,0.000000000,0.000000000,25.923114777,0.000000000,25.201751709,22.504608154
1766086702.200996,0.000000000,8.000000000,0.008496081,0.000000000,-25.364210129,1.000000000,0.008076160,0.000000000,1.000000000,0.000000000,,,,,,
1766086702.210643,,,,,,,,,,,0.000000000,0.000000000,25.929967880,0.000000000,25.202026367,22.504608154
1766086702.310837,,,,,,,,,,,0.000000000,0.000000000,25.923114777,0.000000000,25.203582764,22.504608154
1766086702.410653,,,,,,,,,,,0.000000000,0.000000000,25.923114777,0.000000000,25.204498291,22.504608154
1766086702.450758,0.000000000,8.000000000,-0.132773831,0.000000000,-25.364210129,1.000000000,-0.126211450,0.000000000,1.000000000,0.000000000,,,,,,
1766086702.510832,,,,,,,,,,,0.000000000,0.000000000,25.925397873,0.000000000,25.205200195,22.504608154
1766086702.614045,,,,,,,,,,,0.000000000,0.000042118,26.539896011,0.000000000,25.205566406,22.504608154
1766086702.700943,0.000000000,8.000000000,-0.047359884,0.000000000,-25.364210129,1.000000000,-0.045019105,0.000000000,1.000000000,0.000000000,,,,,,
1766086702.710589,,,,,,,,,,,0.000000000,0.000134490,25.936820984,0.000000000,25.207031250,22.504608154
1766086702.810661,,,,,,,,,,,0.000000000,0.000107446,25.918544769,0.000000000,25.209564209,22.504608154
1766086702.909669,,,,,,,,,,,0.000000000,0.000100479,25.925397873,0.000000000,25.208343506,22.504608154
1766086702.949844,0.000000000,8.000000000,0.019412369,0.000000000,-25.364210129,1.000000000,0.018452913,0.000000000,1.000000000,0.000000000,,,,,,
1766086703.009742,,,,,,,,,,,0.000000000,0.000000000,25.927682877,0.000000000,25.211791992,22.504608154
1766086703.110535,,,,,,,,,,,0.000000000,0.000000000,25.913976669,0.000000000,25.211242676,22.504608154
1766086703.208363,0.000000000,8.000000000,0.092634976,0.000000000,-25.364210129,1.000000000,0.088056475,0.000000000,1.000000000,0.000000000,,,,,,
1766086703.212127,,,,,,,,,,,0.000000000,-0.000000000,25.923114777,0.000000000,25.212249756,22.504608154
1766086703.314434,,,,,,,,,,,0.000000000,0.000019132,25.927682877,0.000000000,25.213439941,22.504608154
1766086703.409688,,,,,,,,,,,0.000000000,0.000000000,25.925397873,0.000000000,25.212585449,22.504608154
1766086703.449903,0.000000000,8.000000000,-0.162435263,0.000000000,-25.364210129,1.000000000,-0.154406846,0.000000000,1.000000000,0.000000000,,,,,,
1766086703.509805,,,,,,,,,,,0.000000000,0.000000000,25.925397873,0.000000000,25.215850830,22.504608154
1766086703.609711,,,,,,,,,,,0.000000000,0.000000000,25.920829773,0.000000000,25.215942383,22.504608154
1766086703.700548,0.000000000,8.000000000,-0.055028066,0.000000000,-25.364210129,1.000000000,-0.052308284,0.000000000,1.000000000,0.000000000,,,,,,
1766086703.709638,,,,,,,,,,,0.000000000,0.000000000,25.918544769,0.000000000,25.214935303,22.504608154
1766086703.813408,,,,,,,,,,,0.000000000,0.000000000,25.943674088,0.000000000,25.217041016,22.504608154
1766086703.914402,,,,,,,,,,,0.000000000,0.000000000,25.920829773,0.000000000,25.218078613,22.504608154
1766086703.949867,0.000000000,8.000000000,0.063406475,0.000000000,-25.364210129,1.000000000,0.060272589,0.000000000,1.000000000,0.000000000,,,,,,
1766086704.015696,,,,,,,,,,,0.000000000,0.000000000,25.909408569,0.000000000,25.220336914,22.504608154
1766086704.109695,,,,,,,,,,,0.000000000,0.000003696,25.920829773,0.000000000,25.222534180,22.504608154
1766086704.198747,0.000000000,8.000000000,0.015455797,0.000000000,-25.364210129,1.000000000,0.014691889,0.000000000,1.000000000,0.000000000,,,,,,
1766086704.208634,,,,,,,,,,,0.000000000,0.000007598,25.911691666,0.000000000,25.222717285,22.504608154
1766086704.308682,,,,,,,,,,,0.000000000,0.000209526,25.934535980,0.000000000,25.221740723,22.504608154
1766086704.408754,,,,,,,,,,,0.000000000,0.000000000,25.927682877,0.000000000,25.223510742,22.504608154
1766086704.449073,0.000000000,8.000000000,0.011666361,0.000000000,-25.364210129,1.000000000,0.011089750,0.000000000,1.000000000,0.000000000,,,,,,
1766086704.513365,,,,,,,,,,,0.000000000,0.000009618,25.923114777,0.000000000,25.224334717,22.504608154
1766086704.613391,,,,,,,,,,,0.000000000,0.000000000,25.929967880,0.000000000,25.224243164,22.504608154
1766086704.698844,0.000000000,8.000000000,-0.016175702,0.000000000,-25.364210129,1.000000000,-0.015376210,0.000000000,1.000000000,0.000000000,,,,,,
1766086704.708749,,,,,,,,,,,0.000000000,0.000020337,25.923114777,0.000000000,25.224670410,22.504608154
1766086704.808748,,,,,,,,,,,0.000000000,0.000000000,25.918544769,0.000000000,25.226196289,22.504608154
1766086704.908746,,,,,,,,,,,0.000000000,0.000000000,25.943674088,0.000000000,25.227600098,22.504608154
1766086704.948898,0.000000000,8.000000000,-0.055109739,0.000000000,-25.364210129,1.000000000,-0.052385926,0.000000000,1.000000000,0.000000000,,,,,,
1766086705.008721,,,,,,,,,,,0.000000000,0.000000000,25.925397873,0.000000000,25.227905273,22.504608154
1766086705.108733,,,,,,,,,,,0.000000000,0.000000000,25.920829773,0.000000000,25.227050781,22.504608154
1766086705.199931,0.000000000,8.000000000,-0.020181298,0.000000000,-25.364210129,1.000000000,-0.019183829,0.000000000,1.000000000,0.000000000,,,,,,
1766086705.208786,,,,,,,,,,,0.000000000,0.000000000,25.918544769,0.000000000,25.228179932,22.504608154
1766086705.310828,,,,,,,,,,,0.000000000,0.000034911,25.918544769,0.000000000,25.229766846,22.504608154
1766086705.408724,,,,,,,,,,,0.000000000,0.000000000,25.936820984,0.000000000,25.231140137,22.504608154
1766086705.448273,0.000000000,8.000000000,-0.010036845,0.000000000,-25.364210129,1.000000000,-0.009540770,0.000000000,1.000000000,0.000000000,,,,,,
1766086705.507859,,,,,,,,,,,0.000000000,0.000051329,25.920829773,0.000000000,25.232086182,22.504608154
1766086705.607851,,,,,,,,,,,0.000000000,0.000000000,25.934535980,0.000000000,25.232299805,22.504608154
1766086705.697838,0.000000000,8.000000000,0.095522165,0.000000000,-25.364210129,1.000000000,0.090800948,0.000000000,1.000000000,0.000000000,,,,,,
1766086705.707742,,,,,,,,,,,0.000000000,0.000004912,25.918544769,0.000000000,25.232574463,22.504608154
1766086705.809688,,,,,,,,,,,0.000000000,0.000000000,25.925397873,0.000000000,25.234985352,22.504608154
1766086705.913795,,,,,,,,,,,0.000000000,0.000000000,25.900270462,0.000000000,25.233520508,22.504608154
1766086705.948051,0.000000000,8.000000000,-0.133033782,0.000000000,-25.364210129,1.000000000,-0.126458541,0.000000000,1.000000000,0.000000000,,,,,,
1766086706.007710,,,,,,,,,,,0.000000000,0.000000000,25.916261673,0.000000000,25.234100342,22.504608154
1766086706.107676,,,,,,,,,,,0.000000000,0.000000000,25.920829773,0.000000000,25.235626221,22.504608154
1766086706.198374,0.000000000,8.000000000,-0.068694137,0.000000000,-25.364210129,1.000000000,-0.065298907,0.000000000,1.000000000,0.000000000,,,,,,
1766086706.207640,,,,,,,,,,,0.000000000,0.000000000,25.920829773,0.000000000,25.235046387,22.504608154
1766086706.308769,,,,,,,,,,,0.000000000,0.000000000,25.920829773,0.000000000,25.235931396,22.504608154
1766086706.407680,,,,,,,,,,,0.000000000,0.000000000,25.920829773,0.000000000,25.238250732,22.504608154
1766086706.448035,0.000000000,8.000000000,-0.014396476,0.000000000,-25.364210129,1.000000000,-0.013684926,0.000000000,1.000000000,0.000000000,,,,,,
1766086706.507854,,,,,,,,,,,0.000000000,0.000000000,25.929967880,0.000000000,25.238891602,22.504608154
1766086706.607769,,,,,,,,,,,0.000000000,0.000000000,25.932250977,0.000000000,25.237609863,22.504608154
1766086706.703880,0.000000000,8.000000000,0.024178103,0.000000000,-25.364210129,1.000000000,0.022983089,0.000000000,1.000000000,0.000000000,,,,,,
1766086706.709078,,,,,,,,,,,0.000000000,0.000000000,25.913976669,0.000000000,25.240417480,22.504608154
1766086706.812652,,,,,,,,,,,0.000000000,0.000000000,25.911691666,0.000000000,25.239318848,22.504608154
1766086706.906884,,,,,,,,,,,0.000000000,0.000000000,25.925397873,0.000000000,25.240997314,22.504608154
1766086706.947085,0.000000000,8.000000000,0.005135782,0.000000000,-25.364210129,1.000000000,0.004881945,0.000000000,1.000000000,0.000000000,,,,,,
1766086707.006776,,,,,,,,,,,0.000000000,0.000000000,25.918544769,0.000000000,25.241760254,22.504608154
1766086707.106738,,,,,,,,,,,0.000000000,0.000000000,25.920829773,0.000000000,25.243499756,22.504608154
1766086707.197066,0.000000000,8.000000000,-0.010569401,0.000000000,-25.364210129,1.000000000,-0.010047004,0.000000000,1.000000000,0.000000000,,,,,,
1766086707.206796,,,,,,,,,,,0.000000000,0.000000000,25.927682877,0.000000000,25.243164063,22.504608154
1766086707.306846,,,,,,,,,,,0.000000000,0.000000000,25.939104080,0.000000000,25.243713379,22.504608154
1766086707.407717,,,,,,,,,,,0.000000000,0.000000000,25.936820984,0.000000000,25.245178223,22.504608154
1766086707.446938,0.000000000,8.000000000,0.065341383,0.000000000,-25.364210129,1.000000000,0.062111869,0.000000000,1.000000000,0.000000000,,,,,,
1766086707.511814,,,,,,,,,,,0.000000000,0.000000000,25.918544769,0.000000000,25.246795654,22.504608154
1766086707.606751,,,,,,,,,,,0.000000000,0.000000000,26.544464111,0.000000000,25.246551514,22.504608154
1766086707.697139,0.000000000,8.000000000,0.069045551,0.000000000,-25.364210129,1.000000000,0.065632954,0.000000000,1.000000000,0.000000000,,,,,,
1766086707.706800,,,,,,,,,,,0.000000000,0.000000000,26.080736160,0.000000000,25.248260498,22.504608154
1766086707.806686,,,,,,,,,,,0.000000000,0.000000000,25.927682877,0.000000000,25.248199463,22.504608154
1766086707.906688,,,,,,,,,,,0.000000000,0.000000000,25.950527191,0.000000000,25.249145508,22.504608154
1766086707.947006,0.000000000,8.000000000,0.025616400,0.000000000,-25.364210129,1.000000000,0.024350300,0.000000000,1.000000000,0.000000000,,,,,,
1766086708.006761,,,,,,,,,,,0.000000000,0.000020041,25.929967880,0.000000000,25.249725342,22.504608154
1766086708.110444,,,,,,,,,,,0.000000000,0.000000000,25.934535980,0.000000000,25.252105713,22.504608154
1766086708.195958,0.000000000,8.000000000,0.087138020,0.000000000,-25.364210129,1.000000000,0.082831196,0.000000000,1.000000000,0.000000000,,,,,,
1766086708.211652,,,,,,,,,,,0.000000000,0.000000000,25.927682877,0.000000000,25.251007080,22.504455566
1766086708.305705,,,,,,,,,,,0.000000000,0.000044971,25.932250977,0.000000000,25.249938965,22.504455566
1766086708.405740,,,,,,,,,,,0.000000000,0.000000000,25.925397873,0.000000000,25.251495361,22.504455566
1766086708.445932,0.000000000,8.000000000,0.021811876,0.000000000,-25.364210129,1.000000000,0.020733818,0.000000000,1.000000000,0.000000000,,,,,,
1766086708.505761,,,,,,,,,,,0.000000000,0.000000000,25.911691666,0.000000000,25.251220703,22.504455566
1766086708.605710,,,,,,,,,,,0.000000000,0.000000000,25.929967880,0.000000000,25.251495361,22.504455566
1766086708.696145,0.000000000,8.000000000,-0.109498739,0.000000000,-25.364210129,1.000000000,-0.104086742,0.000000000,1.000000000,0.000000000,,,,,,
1766086708.710414,,,,,,,,,,,0.000000000,0.000000000,25.923114777,0.000000000,25.252990723,22.504455566
1766086708.805762,,,,,,,,,,,0.000000000,0.000024019,25.925397873,0.000000000,25.254302979,22.504455566
1766086708.905791,,,,,,,,,,,0.000000000,0.000025124,25.939104080,0.000000000,25.254577637,22.504455566
1766086708.946013,0.000000000,8.000000000,0.017601065,0.000000000,-25.364210129,1.000000000,0.016731124,0.000000000,1.000000000,0.000000000,,,,,,
1766086709.005738,,,,,,,,,,,0.000000000,0.000000000,25.920829773,0.000000000,25.255157471,22.504455566
1766086709.106330,,,,,,,,,,,0.000000000,0.000000000,25.916261673,0.000000000,25.254943848,22.504455566
1766086709.196490,0.000000000,8.000000000,-0.080791764,0.000000000,-25.364210129,1.000000000,-0.076798603,0.000000000,1.000000000,0.000000000,,,,,,
1766086709.210375,,,,,,,,,,,0.000000000,0.000027051,25.934535980,0.000000000,25.256744385,22.504455566
1766086709.305742,,,,,,,,,,,0.000000000,0.000000000,25.923114777,0.000000000,25.257232666,22.504455566
1766086709.404885,,,,,,,,,,,0.000000000,0.000000000,25.927682877,0.000000000,25.257568359,22.504455566
1766086709.445413,0.000000000,8.000000000,0.129219562,0.000000000,-25.364210129,1.000000000,0.122832850,0.000000000,1.000000000,0.000000000,,,,,,
1766086709.504848,,,,,,,,,,,0.000000000,0.000000000,25.916261673,0.000000000,25.258575439,22.504455566
1766086709.604766,,,,,,,,,,,0.000000000,0.000000000,25.932250977,0.000000000,25.257476807,22.504455566
1766086709.701758,0.000000000,8.000000000,0.179357827,0.000000000,-25.364210129,1.000000000,0.170493007,0.000000000,1.000000000,0.000000000,,,,,,
1766086709.706602,,,,,,,,,,,0.000000000,0.000000000,25.918544769,0.000000000,25.259521484,22.504455566
1766086709.809689,,,,,,,,,,,0.000000000,0.000000000,25.932250977,0.000000000,25.259063721,22.504455566
1766086709.904896,,,,,,,,,,,0.000000000,0.000000000,25.923114777,0.000000000,25.260772705,22.504455566
1766086709.945029,0.000000000,8.000000000,-0.043929007,0.000000000,-25.364210129,1.000000000,-0.041757803,0.000000000,1.000000000,0.000000000,,,,,,
1766086710.004774,,,,,,,,,,,0.000000000,0.000017571,25.927682877,0.000000000,25.262451172,22.504455566
1766086710.104717,,,,,,,,,,,0.000000000,0.000073845,25.916261673,0.000000000,25.261688232,22.504455566
1766086710.195257,0.000000000,8.000000000,0.020907074,0.000000000,-25.364210129,1.000000000,0.019873738,0.000000000,1.000000000,0.000000000,,,,,,
1766086710.204638,,,,,,,,,,,0.000000000,0.000006382,25.929967880,0.000000000,25.261871338,22.504455566
1766086710.306725,,,,,,,,,,,0.000000000,0.000000000,25.918544769,0.000000000,25.263946533,22.504455566
1766086710.408414,,,,,,,,,,,0.000000000,0.000000000,25.939104080,0.000000000,25.264648438,22.504455566
1766086710.445098,0.000000000,8.000000000,-0.000787139,0.000000000,-25.364210129,1.000000000,-0.000748232,0.000000000,1.000000000,0.000000000,,,,,,
1766086710.504746,,,,,,,,,,,0.000000000,0.000000000,25.913976669,0.000000000,25.263397217,22.504455566
1766086710.604737,,,,,,,,,,,0.000000000,0.000000000,25.916261673,0.000000000,25.264801025,22.504455566
1766086710.693818,0.000000000,8.000000000,-0.064915143,0.000000000,-25.364210129,1.000000000,-0.061706692,0.000000000,1.000000000,0.000000000,,,,,,
1766086710.703753,,,,,,,,,,,0.000000000,0.000000000,25.920829773,0.000000000,25.265716553,22.504455566
1766086710.803759,,,,,,,,,,,0.000000000,0.000000000,25.932250977,0.000000000,25.267089844,22.504455566
1766086710.906941,,,,,,,,,,,0.000000000,0.000000000,25.913976669,0.000000000,25.266448975,22.504455566
1766086710.943933,0.000000000,8.000000000,0.078987509,0.000000000,-25.364210129,1.000000000,0.075083524,0.000000000,1.000000000,0.000000000,,,,,,
1766086711.008397,,,,,,,,,,,0.000000000,0.000000000,25.932250977,0.000000000,25.266326904,22.504455566
1766086711.103691,,,,,,,,,,,0.000000000,-0.000000000,25.927682877,0.000000000,25.267089844,22.504455566
1766086711.193866,0.000000000,8.000000000,-0.057094634,0.000000000,-25.364210129,1.000000000,-0.054272726,0.000000000,1.000000000,0.000000000,,,,,,
1766086711.203686,,,,,,,,,,,0.000000000,0.000000000,25.925397873,0.000000000,25.268249512,22.504455566
1766086711.303685,,,,,,,,,,,0.000000000,0.000000000,25.936820984,0.000000000,25.268798828,22.504455566
1766086711.407285,,,,,,,,,,,0.000000000,0.000000000,25.941389084,0.000000000,25.269714355,22.504455566
1766086711.443928,0.000000000,8.000000000,0.113346249,0.000000000,-25.364210129,1.000000000,0.107744075,0.000000000,1.000000000,0.000000000,,,,,,
1766086711.503709,,,,,,,,,,,0.000000000,0.000000000,25.936820984,0.000000000,25.269805908,22.504455566
1766086711.603716,,,,,,,,,,,0.000000000,0.000016010,25.950527191,0.000000000,25.271850586,22.504455566
1766086711.694110,0.000000000,8.000000000,-0.006265654,0.000000000,-25.364210129,1.000000000,-0.005955972,0.000000000,1.000000000,0.000000000,,,,,,
1766086711.703728,,,,,,,,,,,0.000000000,0.000000000,25.936820984,0.000000000,25.271575928,22.504455566
1766086711.803706,,,,,,,,,,,0.000000000,0.000073095,25.925397873,0.000000000,25.271759033,22.504455566
1766086711.907333,,,,,,,,,,,0.000000000,0.000000000,25.904838562,0.000000000,25.273254395,22.504455566
1766086711.943067,0.000000000,8.000000000,0.190815911,0.000000000,-25.364210129,1.000000000,0.181384772,0.000000000,1.000000000,0.000000000,,,,,,
1766086712.007759,,,,,,,,,,,0.000000000,0.000060265,25.907123566,0.000000000,25.272399902,22.504455566
1766086712.102717,,,,,,,,,,,0.000000000,0.000006057,25.920829773,0.000000000,25.274017334,22.504455566
1766086712.192784,0.000000000,8.000000000,0.013251230,0.000000000,-25.364210129,1.000000000,0.012596283,0.000000000,1.000000000,0.000000000,,,,,,
1766086712.202683,,,,,,,,,,,0.000000000,0.000000000,25.925397873,0.000000000,25.274536133,22.504455566
1766086712.302737,,,,,,,,,,,0.000000000,0.000090602,25.955095291,0.000000000,25.275421143,22.504455566
1766086712.402747,,,,,,,,,,,0.000000000,0.000000000,25.929967880,0.000000000,25.274566650,22.504455566
1766086712.443972,0.000000000,8.000000000,0.003603309,0.000000000,-25.364210129,1.000000000,0.003425211,0.000000000,1.000000000,0.000000000,,,,,,
1766086712.503610,,,,,,,,,,,0.000000000,0.000000000,25.941389084,0.000000000,25.276092529,22.504455566
1766086712.608892,,,,,,,,,,,0.000000000,-0.000000000,25.941389084,0.000000000,25.276306152,22.504455566
1766086712.693129,0.000000000,8.000000000,-0.101211429,0.000000000,-25.364210129,1.000000000,-0.096209019,0.000000000,1.000000000,0.000000000,,,,,,
1766086712.702673,,,,,,,,,,,0.000000000,0.000000000,26.533042908,0.000000000,25.276733398,22.504455566
1766086712.802760,,,,,,,,,,,0.000000000,0.000000000,25.939104080,0.000000000,25.277923584,22.504455566
1766086712.902795,,,,,,,,,,,0.000000000,0.000000000,25.920829773,0.000000000,25.278137207,22.504455566
1766086712.942896,0.000000000,8.000000000,-0.060803998,0.000000000,-25.364210129,1.000000000,-0.057798740,0.000000000,1.000000000,0.000000000,,,,,,
1766086713.002764,,,,,,,,,,,0.000000000,0.000000000,25.916261673,0.000000000,25.280120850,22.504455566
1766086713.102731,,,,,,,,,,,0.000000000,0.000000000,25.916261673,0.000000000,25.280364990,22.504455566
1766086713.199531,0.000000000,8.000000000,0.143970251,0.000000000,-25.364210129,1.000000000,0.136854470,0.000000000,1.000000000,0.000000000,,,,,,
1766086713.204289,,,,,,,,,,,0.000000000,0.000000000,25.918544769,0.000000000,25.279785156,22.504455566
1766086713.301802,,,,,,,,,,,0.000000000,0.000000000,25.945957184,0.000000000,25.280761719,22.504455566
1766086713.401759,,,,,,,,,,,0.000000000,0.000060337,25.925397873,0.000000000,25.281250000,22.504455566
1766086713.442062,0.000000000,8.000000000,-0.058749843,0.000000000,-25.364210129,1.000000000,-0.055846114,0.000000000,1.000000000,0.000000000,,,,,,
1766086713.501873,,,,,,,,,,,0.000000000,0.000000000,25.929967880,0.000000000,25.281311035,22.504455566
1766086713.601736,,,,,,,,,,,0.000000000,0.000000000,25.936820984,0.000000000,25.283325195,22.504455566
1766086713.698996,0.000000000,8.000000000,-0.019805677,0.000000000,-25.364210129,1.000000000,-0.018826772,0.000000000,1.000000000,0.000000000,,,,,,
1766086713.704721,,,,,,,,,,,0.000000000,0.000000000,25.907123566,0.000000000,25.282775879,22.504455566
1766086713.801702,,,,,,,,,,,0.000000000,0.000026169,25.955095291,0.000000000,25.283538818,22.504455566
1766086713.901807,,,,,,,,,,,0.000000000,0.000002587,25.934535980,0.000000000,25.282226563,22.504455566
1766086713.942088,0.000000000,8.000000000,0.010898449,0.000000000,-25.364210129,1.000000000,0.010359786,0.000000000,1.000000000,0.000000000,,,,,,
1766086714.001798,,,,,,,,,,,0.000000000,0.000000000,25.909408569,0.000000000,25.284179688,22.504455566
1766086714.101745,,,,,,,,,,,0.000000000,0.000000000,25.923114777,0.000000000,25.284729004,22.504455566
1766086714.192430,0.000000000,8.000000000,-0.037469432,0.000000000,-25.364210129,1.000000000,-0.035617493,0.000000000,1.000000000,0.000000000,,,,,,
1766086714.201696,,,,,,,,,,,0.000000000,0.000000000,25.929967880,0.000000000,25.285095215,22.504455566
1766086714.302700,,,,,,,,,,,0.000000000,0.000000000,25.929967880,0.000000000,25.286499023,22.504455566
1766086714.405086,,,,,,,,,,,0.000000000,0.000000000,25.911691666,0.000000000,25.286865234,22.504455566
1766086714.441949,0.000000000,8.000000000,0.010215908,0.000000000,-25.364210129,1.000000000,0.009710982,0.000000000,1.000000000,0.000000000,,,,,,
1766086714.506327,,,,,,,,,,,0.000000000,0.000000000,25.920829773,0.000000000,25.287933350,22.504455566
1766086714.600787,,,,,,,,,,,0.000000000,0.000000000,25.920829773,0.000000000,25.287078857,22.504455566
1766086714.690793,0.000000000,8.000000000,0.043540068,0.000000000,-25.364210129,1.000000000,0.041388087,0.000000000,1.000000000,0.000000000,,,,,,
1766086714.700710,,,,,,,,,,,0.000000000,0.000000000,25.893417358,0.000000000,25.287933350,22.504455566
1766086714.800755,,,,,,,,,,,0.000000000,0.000000000,25.934535980,0.000000000,25.287414551,22.504455566
1766086714.902088,,,,,,,,,,,0.000000000,0.000005888,25.934535980,0.000000000,25.287353516,22.504455566
1766086714.941715,0.000000000,8.000000000,0.051485617,0.000000000,-25.364210129,1.000000000,0.048940927,0.000000000,1.000000000,0.000000000,,,,,,
1766086715.002701,,,,,,,,,,,0.000000000,0.000007884,25.945957184,0.000000000,25.285980225,22.504455566
1766086715.105258,,,,,,,,,,,0.000000000,0.000000000,25.918544769,0.000000000,25.288604736,22.504455566
1766086715.191290,0.000000000,8.000000000,-0.055911820,0.000000000,-25.364210129,1.000000000,-0.053148363,0.000000000,1.000000000,0.000000000,,,,,,
1766086715.200706,,,,,,,,,,,0.000000000,0.000106118,25.934535980,0.000000000,25.289245605,22.504455566
1766086715.300835,,,,,,,,,,,0.000000000,0.000000000,25.918544769,0.000000000,25.291381836,22.504455566
1766086715.400751,,,,,,,,,,,0.000000000,0.000000000,25.929967880,0.000000000,25.290496826,22.504455566
1766086715.441112,0.000000000,8.000000000,-0.095025592,0.000000000,-25.364210129,1.000000000,-0.090328924,0.000000000,1.000000000,0.000000000,,,,,,
1766086715.500840,,,,,,,,,,,0.000000000,0.000044157,25.932250977,0.000000000,25.292175293,22.504455566
1766086715.601732,,,,,,,,,,,0.000000000,0.000000000,25.929967880,0.000000000,25.292541504,22.504455566
1766086715.691179,0.000000000,8.000000000,-0.155799270,0.000000000,-25.364210129,1.000000000,-0.148098841,0.000000000,1.000000000,0.000000000,,,,,,
1766086715.700757,,,,,,,,,,,0.000000000,0.000046078,25.936820984,0.000000000,25.291931152,22.504455566
1766086715.799754,,,,,,,,,,,0.000000000,0.000000000,25.948242188,0.000000000,25.291748047,22.504455566
1766086715.899750,,,,,,,,,,,0.000000000,0.000000000,25.925397873,0.000000000,25.292144775,22.504455566
1766086715.940162,0.000000000,8.000000000,0.003239065,0.000000000,-25.364210129,1.000000000,0.003078967,0.000000000,1.000000000,0.000000000,,,,,,
1766086715.999732,,,,,,,,,,,0.000000000,0.000000000,25.927682877,0.000000000,25.293121338,22.504455566
1766086716.099772,,,,,,,,,,,0.000000000,-0.000000000,25.918544769,0.000000000,25.292968750,22.504455566
1766086716.191290,0.000000000,8.000000000,0.031911165,0.000000000,-25.364210129,1.000000000,0.030333944,0.000000000,1.000000000,0.000000000,,,,,,
1766086716.199835,,,,,,,,,,,0.000000000,0.000000000,25.927682877,0.000000000,25.294830322,22.504455566
1766086716.304309,,,,,,,,,,,0.000000000,0.000000000,25.929967880,0.000000000,25.294677734,22.504455566
1766086716.399798,,,,,,,,,,,0.000000000,0.000011136,25.934535980,0.000000000,25.294006348,22.504455566
1766086716.440047,0.000000000,8.000000000,0.057569131,0.000000000,-25.364210129,1.000000000,0.054723755,0.000000000,1.000000000,0.000000000,,,,,,
1766086716.499791,,,,,,,,,,,0.000000000,0.000000000,25.927682877,0.000000000,25.294067383,22.504455566
1766086716.599762,,,,,,,,,,,0.000000000,0.000000000,25.920829773,0.000000000,25.295104980,22.504455566
1766086716.693528,0.000000000,8.000000000,0.086460792,0.000000000,-25.364210129,1.000000000,0.082187444,0.000000000,1.000000000,0.000000000,,,,,,
1766086716.701618,,,,,,,,,,,0.000000000,0.000000000,25.909408569,0.000000000,25.295776367,22.504455566
1766086716.805896,,,,,,,,,,,0.000000000,0.000000000,25.952810287,0.000000000,25.295776367,22.504455566
1766086716.899754,,,,,,,,,,,0.000000000,0.000000000,25.918544769,0.000000000,25.296417236,22.504455566
1766086716.940208,0.000000000,8.000000000,0.078718960,0.000000000,-25.364210129,1.000000000,0.074828252,0.000000000,1.000000000,0.000000000,,,,,,
1766086716.999823,,,,,,,,,,,0.000000000,0.000000000,25.943674088,0.000000000,25.297454834,22.504455566
1766086717.098746,,,,,,,,,,,0.000000000,0.000033819,25.918544769,0.000000000,25.298004150,22.504455566
1766086717.188852,0.000000000,8.000000000,-0.031106256,0.000000000,-25.364210129,1.000000000,-0.029568821,0.000000000,1.000000000,0.000000000,,,,,,
1766086717.202885,,,,,,,,,,,0.000000000,0.000000000,25.920829773,0.000000000,25.299041748,22.504455566
1766086717.304724,,,,,,,,,,,0.000000000,0.000000000,25.916261673,0.000000000,25.299285889,22.504455566
1766086717.398775,,,,,,,,,,,0.000000000,0.000106431,25.932250977,0.000000000,25.299835205,22.504455566
1766086717.438945,0.000000000,8.000000000,0.086953819,0.000000000,-25.364210129,1.000000000,0.082656085,0.000000000,1.000000000,0.000000000,,,,,,
1766086717.498730,,,,,,,,,,,0.000000000,0.000100685,25.934535980,0.000000000,25.298553467,22.504455566
1766086717.598756,,,,,,,,,,,0.000000000,0.000005298,25.948242188,0.000000000,25.300323486,22.504455566
1766086717.689211,0.000000000,8.000000000,-0.022438720,0.000000000,-25.364210129,1.000000000,-0.021329679,0.000000000,1.000000000,0.000000000,,,,,,
1766086717.698744,,,,,,,,,,,0.000000000,0.000000000,25.923114777,0.000000000,25.299652100,22.504455566
1766086717.799738,,,,,,,,,,,0.000000000,0.000000000,26.537611008,0.000000000,25.300628662,22.504455566
1766086717.899929,,,,,,,,,,,0.000000000,0.000000000,25.939104080,0.000000000,25.301696777,22.504455566
1766086717.939091,0.000000000,8.000000000,0.144903824,0.000000000,-25.364210129,1.000000000,0.137741908,0.000000000,1.000000000,0.000000000,,,,,,
1766086717.998936,,,,,,,,,,,0.000000000,0.000000000,25.920829773,0.000000000,25.301513672,22.504455566
1766086718.098881,,,,,,,,,,,0.000000000,0.000000000,25.927682877,0.000000000,25.299743652,22.504455566
1766086718.189261,0.000000000,8.000000000,0.073710844,0.000000000,-25.364210129,1.000000000,0.070067674,0.000000000,1.000000000,0.000000000,,,,,,
1766086718.198708,,,,,,,,,,,0.000000000,0.000000000,25.927682877,0.000000000,25.302001953,22.504455566
1766086718.298829,,,,,,,,,,,0.000000000,-0.000000000,25.927682877,0.000000000,25.304534912,22.504455566
1766086718.397776,,,,,,,,,,,0.000000000,0.000000000,25.929967880,0.000000000,25.303070068,22.504455566
1766086718.437953,0.000000000,8.000000000,-0.055499934,0.000000000,-25.364210129,1.000000000,-0.052756831,0.000000000,1.000000000,0.000000000,,,,,,
1766086718.497829,,,,,,,,,,,0.000000000,0.000000000,25.943674088,0.000000000,25.304473877,22.504455566
1766086718.597774,,,,,,,,,,,0.000000000,0.000000000,25.918544769,0.000000000,25.303497314,22.504455566
1766086718.695625,0.000000000,8.000000000,-0.047509819,0.000000000,-25.364210129,1.000000000,-0.045161631,0.000000000,1.000000000,0.000000000,,,,,,
1766086718.700310,,,,,,,,,,,0.000000000,0.000000000,25.941389084,0.000000000,25.305511475,22.504455566
1766086718.803713,,,,,,,,,,,0.000000000,0.000002200,25.929967880,0.000000000,25.305145264,22.504455566
1766086718.897800,,,,,,,,,,,0.000000000,0.000000000,25.923114777,0.000000000,25.307006836,22.504455566
1766086718.938061,0.000000000,8.000000000,-0.091866702,0.000000000,-25.364210129,1.000000000,-0.087326169,0.000000000,1.000000000,0.000000000,,,,,,
1766086718.997909,,,,,,,,,,,0.000000000,0.000000000,25.918544769,0.000000000,25.308471680,22.504455566
1766086719.097843,,,,,,,,,,,0.000000000,0.000000000,25.918544769,0.000000000,25.306854248,22.504455566
1766086719.188478,0.000000000,8.000000000,0.025243320,0.000000000,-25.364210129,1.000000000,0.023995660,0.000000000,1.000000000,0.000000000,,,,,,
1766086719.197689,,,,,,,,,,,0.000000000,0.000002348,25.916261673,0.000000000,25.307464600,22.504455566
1766086719.300420,,,,,,,,,,,0.000000000,0.000000000,25.948242188,0.000000000,25.309265137,22.504455566
1766086719.401336,,,,,,,,,,,0.000000000,0.000007454,25.916261673,0.000000000,25.307647705,22.504455566
1766086719.438054,0.000000000,8.000000000,0.000657476,0.000000000,-25.364210129,1.000000000,0.000624981,0.000000000,1.000000000,0.000000000,,,,,,
1766086719.497784,,,,,,,,,,,0.000000000,0.000000000,25.918544769,0.000000000,25.308410645,22.504455566
1766086719.597799,,,,,,,,,,,0.000000000,0.000000000,25.918544769,0.000000000,25.308380127,22.504455566
1766086719.686923,0.000000000,8.000000000,-0.034159835,0.000000000,-25.364210129,1.000000000,-0.032471474,0.000000000,1.000000000,0.000000000,,,,,,
1766086719.696740,,,,,,,,,,,0.000000000,0.000000000,25.909408569,0.000000000,25.308929443,22.504455566
1766086719.796742,,,,,,,,,,,0.000000000,0.000000000,25.923114777,0.000000000,25.309204102,22.504455566
1766086719.898720,,,,,,,,,,,0.000000000,0.000000000,25.920829773,0.000000000,25.310607910,22.504455566
1766086719.940120,0.000000000,8.000000000,0.023595914,0.000000000,-25.364210129,1.000000000,0.022429675,0.000000000,1.000000000,0.000000000,,,,,,
1766086720.000238,,,,,,,,,,,0.000000000,0.000078029,25.920829773,0.000000000,25.309204102,22.504455566
1766086720.101339,,,,,,,,,,,0.000000000,0.000000000,25.902555466,0.000000000,25.312103271,22.504455566
1766086720.186926,0.000000000,8.000000000,-0.037994348,0.000000000,-25.364210129,1.000000000,-0.036116458,0.000000000,1.000000000,0.000000000,,,,,,
1766086720.196714,,,,,,,,,,,0.000000000,0.000000000,25.918544769,0.000000000,25.310333252,22.504455566
1766086720.296810,,,,,,,,,,,0.000000000,0.000007806,25.913976669,0.000000000,25.312561035,22.504455566
1766086720.396782,,,,,,,,,,,0.000000000,0.000000000,25.923114777,0.000000000,25.312896729,22.504455566
1766086720.437119,0.000000000,8.000000000,-0.037569515,0.000000000,-25.364210129,1.000000000,-0.035712630,0.000000000,1.000000000,0.000000000,,,,,,
1766086720.496758,,,,,,,,,,,0.000000000,0.000041675,25.934535980,0.000000000,25.312774658,22.504455566
1766086720.597716,,,,,,,,,,,0.000000000,0.000013267,25.920829773,0.000000000,25.313262939,22.504455566
1766086720.689347,0.000000000,8.000000000,0.015749432,0.000000000,-25.364210129,1.000000000,0.014971010,0.000000000,1.000000000,0.000000000,,,,,,
1766086720.698798,,,,,,,,,,,0.000000000,0.000131518,25.916261673,0.000000000,25.314239502,22.504455566
1766086720.796809,,,,,,,,,,,0.000000000,0.000000000,25.934535980,0.000000000,25.314544678,22.504455566
1766086720.896777,,,,,,,,,,,0.000000000,0.000000000,25.916261673,0.000000000,25.313812256,22.504455566
1766086720.937079,0.000000000,8.000000000,0.125206888,0.000000000,-25.364210129,1.000000000,0.119018503,0.000000000,1.000000000,0.000000000,,,,,,
1766086720.995804,,,,,,,,,,,0.000000000,0.000000000,25.916261673,0.000000000,25.315002441,22.504455566
1766086721.095762,,,,,,,,,,,0.000000000,0.000000000,25.934535980,0.000000000,25.314453125,22.504455566
1766086721.185856,0.000000000,8.000000000,-0.045682020,0.000000000,-25.364210129,1.000000000,-0.043424174,0.000000000,1.000000000,0.000000000,,,,,,
1766086721.195794,,,,,,,,,,,0.000000000,0.000000000,25.927682877,0.000000000,25.315612793,22.504455566
1766086721.297838,,,,,,,,,,,0.000000000,0.000000000,25.923114777,0.000000000,25.317077637,22.504455566
1766086721.400337,,,,,,,,,,,0.000000000,0.000000000,25.927682877,0.000000000,25.315307617,22.504455566
1766086721.435899,0.000000000,8.000000000,0.044660866,0.000000000,-25.364210129,1.000000000,0.042453490,0.000000000,1.000000000,0.000000000,,,,,,
1766086721.500380,,,,,,,,,,,0.000000000,0.000042271,25.920829773,0.000000000,25.316497803,22.504455566
1766086721.595830,,,,,,,,,,,0.000000000,0.000000000,25.920829773,0.000000000,25.317016602,22.504455566
1766086721.686212,0.000000000,8.000000000,0.010360844,0.000000000,-25.364210129,1.000000000,0.009848759,0.000000000,1.000000000,0.000000000,,,,,,
1766086721.695904,,,,,,,,,,,0.000000000,0.000000000,25.925397873,0.000000000,25.316925049,22.504455566
1766086721.795820,,,,,,,,,,,0.000000000,0.000037589,25.918544769,0.000000000,25.316741943,22.504455566
1766086721.895844,,,,,,,,,,,0.000000000,-0.000000000,25.925397873,0.000000000,25.320678711,22.504455566
1766086721.936268,0.000000000,8.000000000,0.074561208,0.000000000,-25.364210129,1.000000000,0.070876002,0.000000000,1.000000000,0.000000000,,,,,,
1766086721.995932,,,,,,,,,,,0.000000000,0.000000000,25.932250977,0.000000000,25.318359375,22.504455566
1766086722.095796,,,,,,,,,,,0.000000000,0.000000000,25.916261673,0.000000000,25.317565918,22.504455566
1766086722.186377,0.000000000,8.000000000,-0.022751108,0.000000000,-25.364210129,1.000000000,-0.021626627,0.000000000,1.000000000,0.000000000,,,,,,
1766086722.200342,,,,,,,,,,,0.000000000,0.000000000,25.918544769,0.000000000,25.317626953,22.504455566
1766086722.300863,,,,,,,,,,,0.000000000,0.000000000,25.927682877,0.000000000,25.318756104,22.504455566
1766086722.394857,,,,,,,,,,,0.000000000,0.000060069,25.936820984,0.000000000,25.319885254,22.504455566
1766086722.434974,0.000000000,8.000000000,0.022814505,0.000000000,-25.364210129,1.000000000,0.021686889,0.000000000,1.000000000,0.000000000,,,,,,
1766086722.494795,,,,,,,,,,,0.000000000,0.000000000,25.925397873,0.000000000,25.320526123,22.504455566
1766086722.594834,,,,,,,,,,,0.000000000,0.000000000,25.918544769,0.000000000,25.320617676,22.504455566
1766086722.685787,0.000000000,8.000000000,0.091212139,0.000000000,-25.364210129,1.000000000,0.086703941,0.000000000,1.000000000,0.000000000,,,,,,
1766086722.694871,,,,,,,,,,,0.000000000,0.000009649,25.904838562,0.000000000,25.320312500,22.504455566
1766086722.799405,,,,,,,,,,,0.000000000,0.000000000,26.560455322,0.000000000,25.319244385,22.504455566
1766086722.899994,,,,,,,,,,,0.000000000,0.000000000,26.021343231,0.000000000,25.319641113,22.504455566
1766086722.934915,0.000000000,8.000000000,0.135780394,0.000000000,-25.364210129,1.000000000,0.129069403,0.000000000,1.000000000,0.000000000,,,,,,
1766086722.995163,,,,,,,,,,,0.000000000,-0.000000000,25.941389084,0.000000000,25.322937012,22.504455566
1766086723.094773,,,,,,,,,,,0.000000000,0.000000000,25.918544769,0.000000000,25.323699951,22.504455566
1766086723.186316,0.000000000,8.000000000,0.012687296,0.000000000,-25.364210129,1.000000000,0.012060221,0.000000000,1.000000000,0.000000000,,,,,,
1766086723.194735,,,,,,,,,,,0.000000000,0.000000000,25.927682877,0.000000000,25.323059082,22.504455566
1766086723.299416,,,,,,,,,,,0.000000000,0.000000000,25.925397873,0.000000000,25.325103760,22.504455566
1766086723.394807,,,,,,,,,,,0.000000000,0.000000000,25.920829773,0.000000000,25.323425293,22.504455566
1766086723.435119,0.000000000,8.000000000,0.071884662,0.000000000,-25.364210129,1.000000000,0.068331748,0.000000000,1.000000000,0.000000000,,,,,,
1766086723.494780,,,,,,,,,,,0.000000000,0.000025804,25.927682877,0.000000000,25.325164795,22.504455566
1766086723.593786,,,,,,,,,,,0.000000000,0.000000000,25.927682877,0.000000000,25.323944092,22.504455566
1766086723.684115,0.000000000,8.000000000,0.166342542,0.000000000,-25.364210129,1.000000000,0.158121005,0.000000000,1.000000000,0.000000000,,,,,,
1766086723.693893,,,,,,,,,,,0.000000000,0.000000000,25.923114777,0.000000000,25.323425293,22.504455566
1766086723.794029,,,,,,,,,,,0.000000000,0.000000000,25.925397873,0.000000000,25.326019287,22.504455566
1766086723.898399,,,,,,,,,,,0.000000000,0.000065809,25.923114777,0.000000000,25.327270508,22.504455566
1766086723.934099,0.000000000,8.000000000,0.146404371,0.000000000,-25.364210129,1.000000000,0.139168292,0.000000000,1.000000000,0.000000000,,,,,,
1766086723.993976,,,,,,,,,,,0.000000000,0.000061597,25.945957184,0.000000000,25.325653076,22.504455566
1766086724.093798,,,,,,,,,,,0.000000000,0.000000000,25.907123566,0.000000000,25.329040527,22.504455566
1766086724.190320,0.000000000,8.000000000,0.073705800,0.000000000,-25.364210129,1.000000000,0.070062868,0.000000000,1.000000000,0.000000000,,,,,,
1766086724.194946,,,,,,,,,,,0.000000000,0.000022093,25.939104080,0.000000000,25.326354980,22.504455566
1766086724.298942,,,,,,,,,,,0.000000000,0.000000000,25.920829773,0.000000000,25.328338623,22.504455566
1766086724.393798,,,,,,,,,,,0.000000000,0.000000000,25.941389084,0.000000000,25.329589844,22.504455566
1766086724.434202,0.000000000,8.000000000,-0.088685676,0.000000000,-25.364210129,1.000000000,-0.084302366,0.000000000,1.000000000,0.000000000,,,,,,
1766086724.493872,,,,,,,,,,,0.000000000,0.000000596,25.936820984,0.000000000,25.328521729,22.504455566
1766086724.593866,,,,,,,,,,,0.000000000,0.000055985,25.927682877,0.000000000,25.328918457,22.504455566
1766086724.684559,0.000000000,8.000000000,0.019406609,0.000000000,-25.364210129,1.000000000,0.018447429,0.000000000,1.000000000,0.000000000,,,,,,
1766086724.693700,,,,,,,,,,,0.000000000,0.000003528,25.929967880,0.000000000,25.330902100,22.504455566
1766086724.795796,,,,,,,,,,,0.000000000,0.000000000,25.923114777,0.000000000,25.328704834,22.504455566
1766086724.898765,,,,,,,,,,,0.000000000,0.000000000,25.918544769,0.000000000,25.329223633,22.504455566
1766086724.933358,0.000000000,8.000000000,0.077036507,0.000000000,-25.364210129,1.000000000,0.073228955,0.000000000,1.000000000,0.000000000,,,,,,
1766086724.992847,,,,,,,,,,,0.000000000,0.000000000,25.925397873,0.000000000,25.330261230,22.504455566
1766086725.092768,,,,,,,,,,,0.000000000,0.000000000,25.925397873,0.000000000,25.330291748,22.504455566
1766086725.182968,0.000000000,8.000000000,0.035451986,0.000000000,-25.364210129,1.000000000,0.033699766,0.000000000,1.000000000,0.000000000,,,,,,
1766086725.192781,,,,,,,,,,,0.000000000,0.000000000,25.897985458,0.000000000,25.330963135,22.504455566
1766086725.292783,,,,,,,,,,,0.000000000,0.000000000,25.920829773,0.000000000,25.329956055,22.504455566
1766086725.392783,,,,,,,,,,,0.000000000,0.000036748,25.964233398,0.000000000,25.332275391,22.504455566
1766086725.433071,0.000000000,8.000000000,0.000721693,0.000000000,-25.364210129,1.000000000,0.000686020,0.000000000,1.000000000,0.000000000,,,,,,
1766086725.496042,,,,,,,,,,,0.000000000,0.000000000,25.923114777,0.000000000,25.332336426,22.504455566
1766086725.592802,,,,,,,,,,,0.000000000,0.000000000,25.923114777,0.000000000,25.331756592,22.504455566
1766086725.683492,0.000000000,8.000000000,-0.158651069,0.000000000,-25.364210129,1.000000000,-0.150809675,0.000000000,1.000000000,0.000000000,,,,,,
1766086725.692834,,,,,,,,,,,0.000000000,0.000000000,25.923114777,0.000000000,25.333404541,22.504455566
1766086725.792827,,,,,,,,,,,0.000000000,0.000000000,25.929967880,0.000000000,25.334167480,22.504455566
1766086725.892759,,,,,,,,,,,0.000000000,0.000002181,25.911691666,0.000000000,25.332794189,22.504455566
1766086725.933147,0.000000000,8.000000000,0.057210051,0.000000000,-25.364210129,1.000000000,0.054382429,0.000000000,1.000000000,0.000000000,,,,,,
1766086725.996361,,,,,,,,,,,0.000000000,0.000000000,25.916261673,0.000000000,25.334259033,22.504455566
1766086726.097328,,,,,,,,,,,0.000000000,0.000040522,25.918544769,0.000000000,25.333618164,22.504455566
1766086726.181910,0.000000000,8.000000000,0.017561410,0.000000000,-25.364210129,1.000000000,0.016693432,0.000000000,1.000000000,0.000000000,,,,,,
1766086726.197757,,,,,,,,,,,0.000000000,0.000000000,25.932250977,0.000000000,25.333496094,22.504455566
1766086726.291811,,,,,,,,,,,0.000000000,0.000000000,25.923114777,0.000000000,25.333953857,22.504455566
1766086726.391796,,,,,,,,,,,0.000000000,-0.000000000,25.897985458,0.000000000,25.334106445,22.504455566
1766086726.432243,0.000000000,8.000000000,-0.025963852,0.000000000,-25.364210129,1.000000000,-0.024680581,0.000000000,1.000000000,0.000000000,,,,,,
1766086726.491806,,,,,,,,,,,0.000000000,0.000000000,25.932250977,0.000000000,25.335296631,22.504455566
1766086726.594773,,,,,,,,,,,0.000000000,0.000000000,25.929967880,0.000000000,25.334533691,22.504455566
1766086726.681915,0.000000000,8.000000000,-0.017753266,0.000000000,-25.364210129,1.000000000,-0.016875807,0.000000000,1.000000000,0.000000000,,,,,,
1766086726.696283,,,,,,,,,,,0.000000000,0.000049759,25.904838562,0.000000000,25.337493896,22.504455566
1766086726.796337,,,,,,,,,,,0.000000000,0.000030453,25.934535980,0.000000000,25.336181641,22.504455566
1766086726.891867,,,,,,,,,,,0.000000000,0.000000000,25.918544769,0.000000000,25.336425781,22.504455566
1766086726.932380,0.000000000,8.000000000,0.078906208,0.000000000,-25.364210129,1.000000000,0.075006247,0.000000000,1.000000000,0.000000000,,,,,,
1766086726.991793,,,,,,,,,,,0.000000000,0.000123098,25.929967880,0.000000000,25.338256836,22.504455566
1766086727.091872,,,,,,,,,,,0.000000000,0.000000000,25.959663391,0.000000000,25.337371826,22.504455566
1766086727.182705,0.000000000,8.000000000,-0.043880448,0.000000000,-25.364210129,1.000000000,-0.041711643,0.000000000,1.000000000,0.000000000,,,,,,
1766086727.191784,,,,,,,,,,,0.000000000,0.000000000,25.920829773,0.000000000,25.338134766,22.504455566
1766086727.294110,,,,,,,,,,,0.000000000,0.000017201,25.918544769,0.000000000,25.336914063,22.504455566
1766086727.395426,,,,,,,,,,,0.000000000,0.000000000,25.925397873,0.000000000,25.338378906,22.504455566
1766086727.432403,0.000000000,8.000000000,-0.179873288,0.000000000,-25.364210129,1.000000000,-0.170983002,0.000000000,1.000000000,0.000000000,,,,,,
1766086727.495519,,,,,,,,,,,0.000000000,0.000000000,25.927682877,0.000000000,25.339660645,22.504455566
1766086727.596814,,,,,,,,,,,0.000000000,0.000000000,25.934535980,0.000000000,25.337310791,22.504455566
1766086727.680918,0.000000000,8.000000000,0.131828323,0.000000000,-25.364210129,1.000000000,0.125312671,0.000000000,1.000000000,0.000000000,,,,,,
1766086727.690892,,,,,,,,,,,0.000000000,-0.000000000,25.927682877,0.000000000,25.339355469,22.504455566
1766086727.790776,,,,,,,,,,,0.000000000,0.000026271,25.920829773,0.000000000,25.338531494,22.504455566
