__time,/odrive_axis5/controller_status/active_errors,/odrive_axis5/controller_status/axis_state,/odrive_axis5/controller_status/iq_measured,/odrive_axis5/controller_status/iq_setpoint,/odrive_axis5/controller_status/pos_estimate,/odrive_axis5/controller_status/procedure_result,/odrive_axis5/controller_status/torque_estimate,/odrive_axis5/controller_status/torque_target,/odrive_axis5/controller_status/trajectory_done_flag,/odrive_axis5/controller_status/vel_estimate,/odrive_axis5/odrive_status/active_errors,/odrive_axis5/odrive_status/bus_current,/odrive_axis5/odrive_status/bus_voltage,/odrive_axis5/odrive_status/disarm_reason,/odrive_axis5/odrive_status/fet_temperature,/odrive_axis5/odrive_status/motor_temperature
1766083557.206398,,,,,,,,,,,0.000000000,0.000000000,25.993928909,0.000000000,24.957794189,22.261688232
1766083557.306477,,,,,,,,,,,0.000000000,0.000045719,25.943674088,0.000000000,24.956939697,22.261688232
1766083557.309489,0.000000000,8.000000000,-0.036334552,-0.004159433,-75.838211060,1.000000000,-0.034538705,-0.003954008,1.000000000,0.001562500,,,,,,
1766083557.406292,,,,,,,,,,,0.000000000,0.000257436,25.943674088,0.000000000,24.955993652,22.261688232
1766083557.506382,,,,,,,,,,,0.000000000,0.000000000,25.945957184,0.000000000,24.956207275,22.261688232
1766083557.562807,0.000000000,8.000000000,0.128800333,0.009409829,-75.838302612,1.000000000,0.122434340,0.008945019,1.000000000,-0.002734375,,,,,,
1766083557.612225,,,,,,,,,,,0.000000000,0.000000000,25.934535980,0.000000000,24.956787109,22.261688232
1766083557.706394,,,,,,,,,,,0.000000000,0.000000000,25.945957184,0.000000000,24.956390381,22.261688232
1766083557.806706,,,,,,,,,,,0.000000000,0.000000000,25.934535980,0.000000000,24.956268311,22.261688232
1766083557.809821,0.000000000,8.000000000,-0.067315854,0.000801672,-75.838272095,1.000000000,-0.063988745,0.000762049,1.000000000,0.000000000,,,,,,
1766083557.906431,,,,,,,,,,,0.000000000,0.000031624,25.934535980,0.000000000,24.956237793,22.261688232
1766083558.006491,,,,,,,,,,,0.000000000,0.000000000,25.943674088,0.000000000,24.957946777,22.261688232
1766083558.059999,0.000000000,8.000000000,0.111054040,0.000801672,-75.838272095,1.000000000,0.105565161,0.000762049,1.000000000,0.000000000,,,,,,
1766083558.108762,,,,,,,,,,,0.000000000,0.000000000,25.945957184,0.000000000,24.958007813,22.261688232
1766083558.209753,,,,,,,,,,,0.000000000,0.000029579,25.945957184,0.000000000,24.957366943,22.261688232
1766083558.306419,,,,,,,,,,,0.000000000,0.000000000,25.934535980,0.000000000,24.957061768,22.261688232
1766083558.309511,0.000000000,8.000000000,0.111703373,-0.006780435,-75.837997437,1.000000000,0.106182404,-0.006445544,1.000000000,0.002343750,,,,,,
1766083558.405370,,,,,,,,,,,0.000000000,0.000000000,25.945957184,0.000000000,24.957946777,22.261688232
1766083558.505443,,,,,,,,,,,0.000000000,0.000000000,25.943674088,0.000000000,24.957794189,22.261688232
1766083558.558767,0.000000000,8.000000000,0.082450591,0.000557603,-75.837974548,1.000000000,0.078375444,0.000530044,1.000000000,0.000000000,,,,,,
1766083558.605287,,,,,,,,,,,0.000000000,0.000000000,25.948242188,0.000000000,24.956329346,22.261688232
1766083558.708169,,,,,,,,,,,0.000000000,0.000000000,25.955095291,0.000000000,24.955596924,22.261688232
1766083558.809481,0.000000000,8.000000000,0.121284500,0.000813173,-75.838272095,1.000000000,0.034360874,0.011205601,1.000000000,0.000000000,,,,,,
1766083558.812111,,,,,,,,,,,0.000000000,0.000000000,25.945957184,0.000000000,24.957641602,22.261688232
1766083558.905321,,,,,,,,,,,0.000000000,0.000006592,25.934535980,0.000000000,24.958679199,22.261688232
1766083559.005632,,,,,,,,,,,0.000000000,0.000003826,25.966516495,0.000000000,24.956542969,22.261688232
1766083559.058877,0.000000000,8.000000000,-0.035225291,0.000813173,-75.838272095,1.000000000,-0.033484269,0.000772982,1.000000000,0.000000000,,,,,,
1766083559.105453,,,,,,,,,,,0.000000000,0.000000000,25.939104080,0.000000000,24.957336426,22.261688232
1766083559.205702,,,,,,,,,,,0.000000000,0.000000000,25.932250977,0.000000000,24.957580566,22.261688232
1766083559.305529,,,,,,,,,,,0.000000000,0.000000000,25.977939606,0.000000000,24.958251953,22.261688232
1766083559.308505,0.000000000,8.000000000,-0.044441652,-0.001716744,-75.838172913,1.000000000,-0.042245109,-0.001631971,1.000000000,0.000781250,,,,,,
1766083559.405335,,,,,,,,,,,0.000000000,0.000020949,25.957380295,0.000000000,24.958465576,22.261688232
1766083559.510375,,,,,,,,,,,0.000000000,0.000000000,25.959663391,0.000000000,24.958374023,22.261688232
1766083559.558818,0.000000000,8.000000000,-0.039234165,-0.001848226,-75.838005066,1.000000000,-0.037295006,-0.001756955,1.000000000,0.000781250,,,,,,
1766083559.605630,,,,,,,,,,,0.000000000,0.000000000,25.968801498,0.000000000,24.959289551,22.261688232
1766083559.704337,,,,,,,,,,,0.000000000,0.000029359,25.932250977,0.000000000,24.958831787,22.261688232
1766083559.804547,,,,,,,,,,,0.000000000,0.000000000,25.943674088,0.000000000,24.957946777,22.261688232
1766083559.807646,0.000000000,8.000000000,0.125211373,0.002057019,-75.838272095,1.000000000,0.119022764,0.001955390,1.000000000,-0.000390625,,,,,,
1766083559.904512,,,,,,,,,,,0.000000000,0.000095099,25.959663391,0.000000000,24.958312988,22.261688232
1766083560.004384,,,,,,,,,,,0.000000000,0.000003456,25.936820984,0.000000000,24.961059570,22.261688232
1766083560.059002,0.000000000,8.000000000,0.014863335,-0.000402471,-75.838264465,1.000000000,0.014128710,-0.000382618,1.000000000,0.000390625,,,,,,
1766083560.106816,,,,,,,,,,,0.000000000,0.000000000,25.941389084,0.000000000,24.958007813,22.261688232
1766083560.204589,,,,,,,,,,,0.000000000,0.000000000,25.925397873,0.000000000,24.959014893,22.261688232
1766083560.304355,,,,,,,,,,,0.000000000,0.000015503,25.948242188,0.000000000,24.959777832,22.261688232
1766083560.307603,0.000000000,8.000000000,-0.004680369,0.021587992,-75.838180542,1.000000000,-0.004449040,0.021693539,1.000000000,-0.007031251,,,,,,
1766083560.404451,,,,,,,,,,,0.000000000,-0.000000000,25.961948395,0.000000000,24.959381104,22.261688232
1766083560.504628,,,,,,,,,,,0.000000000,-0.000000000,25.948242188,0.000000000,24.959320068,22.261688232
1766083560.557832,0.000000000,8.000000000,0.005260646,-0.002916092,-75.838195801,1.000000000,0.005000636,-0.002772081,1.000000000,0.001171875,,,,,,
1766083560.604605,,,,,,,,,,,0.000000000,0.000000000,25.957380295,0.000000000,24.958801270,22.261688232
1766083560.704416,,,,,,,,,,,0.000000000,0.000028951,25.952810287,0.000000000,24.957427979,22.261688232
1766083560.804449,,,,,,,,,,,0.000000000,0.000000000,25.943674088,0.000000000,24.957885742,22.261688232
1766083560.807509,0.000000000,8.000000000,-0.076934010,0.000833470,-75.838272095,1.000000000,-0.073131524,0.000792276,1.000000000,0.000000000,,,,,,
1766083560.904600,,,,,,,,,,,0.000000000,0.000000000,25.939104080,0.000000000,24.957611084,22.261688232
1766083561.003755,,,,,,,,,,,0.000000000,0.000000000,25.939104080,0.000000000,24.960815430,22.261688232
1766083561.062130,0.000000000,8.000000000,0.054095149,0.002075645,-75.838294983,1.000000000,0.051421478,0.001973095,1.000000000,-0.000390625,,,,,,
1766083561.103726,,,,,,,,,,,0.000000000,0.000031187,25.952810287,0.000000000,24.957458496,22.261688232
1766083561.203469,,,,,,,,,,,0.000000000,0.000000000,25.929967880,0.000000000,24.957153320,22.261688232
1766083561.303387,,,,,,,,,,,0.000000000,0.000065838,25.943674088,0.000000000,24.958862305,22.261688232
1766083561.306473,0.000000000,8.000000000,-0.099152297,-0.000483608,-75.838172913,1.000000000,-0.094251662,-0.000459745,1.000000000,0.000390625,,,,,,
1766083561.403711,,,,,,,,,,,0.000000000,0.000000000,25.932250977,0.000000000,24.959075928,22.261688232
1766083561.503497,,,,,,,,,,,0.000000000,0.000000000,25.943674088,0.000000000,24.958587646,22.261688232
1766083561.556896,0.000000000,8.000000000,-0.159470648,-0.000549349,-75.838104248,1.000000000,-0.151588768,-0.000522237,1.000000000,0.000390625,,,,,,
1766083561.603382,,,,,,,,,,,0.000000000,0.000000000,25.957380295,0.000000000,24.958282471,22.261688232
1766083561.703490,,,,,,,,,,,0.000000000,0.000019117,25.943674088,0.000000000,24.959228516,22.261688232
1766083561.803752,,,,,,,,,,,0.000000000,0.000000000,25.939104080,0.000000000,24.957061768,22.261688232
1766083561.806549,0.000000000,8.000000000,-0.144426554,0.000815419,-75.838272095,1.000000000,-0.137288228,0.000775116,1.000000000,0.000000000,,,,,,
1766083561.903702,,,,,,,,,,,0.000000000,-0.000000000,25.964233398,0.000000000,24.958190918,22.261688232
1766083562.003605,,,,,,,,,,,0.000000000,0.000022742,25.945957184,0.000000000,24.959869385,22.261688232
1766083562.056942,0.000000000,8.000000000,-0.046129879,0.000815419,-75.838272095,1.000000000,-0.043849893,0.000775116,1.000000000,0.000000000,,,,,,
1766083562.103627,,,,,,,,,,,0.000000000,0.000000000,25.966516495,0.000000000,24.958007813,22.261688232
1766083667.129236,,,,,,,,,,,0.000000000,0.000000000,25.955095291,0.000000000,25.007629395,22.232635498
1766083667.228207,,,,,,,,,,,0.000000000,0.000065337,25.936820984,0.000000000,25.006317139,22.232635498
1766083667.230206,0.000000000,8.000000000,0.032101061,-0.001588156,-75.838279724,1.000000000,0.030514456,-0.001509739,1.000000000,0.000781250,,,,,,
1766083667.328386,,,,,,,,,,,0.000000000,0.000000000,25.955095291,0.000000000,25.005706787,22.232635498
1766083667.428201,,,,,,,,,,,0.000000000,0.000109381,25.950527191,0.000000000,25.006591797,22.232635498
1766083667.482012,0.000000000,8.000000000,-0.106171623,-0.012864136,-75.837989807,1.000000000,-0.100924060,-0.012228752,1.000000000,0.004296876,,,,,,
1766083667.528255,,,,,,,,,,,0.000000000,0.000000000,25.936820984,0.000000000,25.005950928,22.232635498
1766083667.628295,,,,,,,,,,,0.000000000,0.000008505,25.948242188,0.000000000,25.006805420,22.232635498
1766083667.728342,,,,,,,,,,,0.000000000,0.000000000,25.932250977,0.000000000,25.007598877,22.231353760
1766083667.730351,0.000000000,8.000000000,-0.107061923,0.002094907,-75.838279724,1.000000000,-0.101770356,0.001991404,1.000000000,-0.000390625,,,,,,
1766083667.828324,,,,,,,,,,,0.000000000,0.000017769,25.936820984,0.000000000,25.006469727,22.231353760
1766083667.928278,,,,,,,,,,,0.000000000,0.000000000,25.939104080,0.000000000,25.007934570,22.231353760
1766083667.980456,0.000000000,8.000000000,-0.016566610,-0.002896021,-75.838172913,1.000000000,-0.015747800,-0.002753001,1.000000000,0.001171875,,,,,,
1766083668.028528,,,,,,,,,,,0.000000000,0.000000000,25.964233398,0.000000000,25.007202148,22.231353760
1766083668.128402,,,,,,,,,,,0.000000000,0.000000000,25.936820984,0.000000000,25.007019043,22.231353760
1766083668.228243,,,,,,,,,,,0.000000000,0.000109184,25.932250977,0.000000000,25.006469727,22.231353760
1766083668.233669,0.000000000,8.000000000,-0.133234695,0.015418131,-75.838081360,1.000000000,0.039114833,-0.000580674,1.000000000,-0.005078126,,,,,,
1766083668.328323,,,,,,,,,,,0.000000000,0.000031962,25.929967880,0.000000000,25.007873535,22.231353760
1766083668.428472,,,,,,,,,,,0.000000000,0.000025556,25.955095291,0.000000000,25.005981445,22.231353760
1766083668.481083,0.000000000,8.000000000,0.047659338,0.012032101,-75.838417053,1.000000000,0.045303762,0.011437762,1.000000000,-0.003515625,,,,,,
1766083668.527401,,,,,,,,,,,0.000000000,0.000000000,25.966516495,0.000000000,25.007080078,22.231353760
1766083668.627318,,,,,,,,,,,0.000000000,0.000000000,26.569593430,0.000000000,25.007537842,22.231353760
1766083668.727347,,,,,,,,,,,0.000000000,0.000078737,25.961948395,0.000000000,25.007049561,22.231353760
1766083668.729470,0.000000000,8.000000000,0.014835542,0.008334258,-75.838401794,1.000000000,0.014102291,0.007922569,1.000000000,-0.002343750,,,,,,
1766083668.827442,,,,,,,,,,,0.000000000,0.000000000,25.932250977,0.000000000,25.006744385,22.231353760
1766083668.927375,,,,,,,,,,,0.000000000,0.000000000,25.934535980,0.000000000,25.007446289,22.231353760
1766083668.981259,0.000000000,8.000000000,-0.054127410,0.032944154,-75.838500977,1.000000000,-0.051452145,0.031316891,1.000000000,-0.010156249,,,,,,
1766083669.027367,,,,,,,,,,,0.000000000,0.000000000,25.959663391,0.000000000,25.005676270,22.231353760
1766083669.127391,,,,,,,,,,,0.000000000,0.000000000,25.952810287,0.000000000,25.008453369,22.231353760
1766083669.227547,,,,,,,,,,,0.000000000,0.000000000,25.945957184,0.000000000,25.007629395,22.231353760
1766083669.229560,0.000000000,8.000000000,-0.088070273,0.000620382,-75.837974548,1.000000000,-0.083717369,0.000589720,1.000000000,0.000000000,,,,,,
1766083669.327250,,,,,,,,,,,0.000000000,0.000094257,25.961948395,0.000000000,25.007965088,22.231353760
1766083669.427447,,,,,,,,,,,0.000000000,0.000000000,25.952810287,0.000000000,25.008087158,22.231353760
1766083669.480246,0.000000000,8.000000000,-0.042925719,-0.002876344,-75.838188171,1.000000000,-0.040804103,-0.002734297,1.000000000,0.001171875,,,,,,
1766083669.527355,,,,,,,,,,,0.000000000,-0.000000000,25.939104080,0.000000000,25.008422852,22.231353760
1766083669.627339,,,,,,,,,,,0.000000000,0.000026113,25.948242188,0.000000000,25.008575439,22.231353760
1766083669.727508,,,,,,,,,,,0.000000000,0.000000000,25.932250977,0.000000000,25.006134033,22.231353760
1766083669.729372,0.000000000,8.000000000,0.022699233,0.000624566,-75.837974548,1.000000000,0.021577317,0.000593697,1.000000000,0.000000000,,,,,,
1766083669.826444,,,,,,,,,,,0.000000000,0.000010347,25.959663391,0.000000000,25.007171631,22.231353760
1766083669.926347,,,,,,,,,,,0.000000000,-0.000000000,25.948242188,0.000000000,25.008148193,22.231353760
1766083669.985530,0.000000000,8.000000000,0.118380651,0.000624566,-75.837974548,1.000000000,0.112529650,0.000593697,1.000000000,0.000000000,,,,,,
1766083670.026416,,,,,,,,,,,0.000000000,0.000061983,25.945957184,0.000000000,25.008148193,22.231353760
1766083670.126652,,,,,,,,,,,0.000000000,0.000000000,25.943674088,0.000000000,25.008697510,22.231353760
1766083670.226472,,,,,,,,,,,0.000000000,0.000000000,25.948242188,0.000000000,25.009643555,22.231353760
1766083670.228369,0.000000000,8.000000000,0.055004638,-0.000359998,-75.838264465,1.000000000,0.052286018,-0.000342244,1.000000000,0.000390625,,,,,,
1766083670.326791,,,,,,,,,,,0.000000000,0.000000000,25.939104080,0.000000000,25.008728027,22.231353760
1766083670.426560,,,,,,,,,,,0.000000000,0.000000000,25.941389084,0.000000000,25.008728027,22.231353760
1766083670.481191,0.000000000,8.000000000,0.237206951,-0.004189284,-75.838088989,1.000000000,0.225482926,-0.003982383,1.000000000,0.001562500,,,,,,
1766083670.530102,,,,,,,,,,,0.000000000,0.000000000,25.959663391,0.000000000,25.008911133,22.231353760
1766083670.626386,,,,,,,,,,,0.000000000,0.000000000,25.959663391,0.000000000,25.009063721,22.231353760
1766083670.726423,,,,,,,,,,,0.000000000,0.000000000,25.955095291,0.000000000,25.008697510,22.231353760
1766083670.728586,0.000000000,8.000000000,-0.010701891,0.000874069,-75.838272095,1.000000000,-0.010172946,0.000830868,1.000000000,0.000000000,,,,,,
1766083670.826421,,,,,,,,,,,0.000000000,0.000014116,25.943674088,0.000000000,25.008300781,22.231353760
1766083670.926471,,,,,,,,,,,0.000000000,0.000000000,25.955095291,0.000000000,25.009582520,22.231292725
1766083670.979222,0.000000000,8.000000000,-0.120999999,0.000874069,-75.838272095,1.000000000,-0.115019545,0.000830868,1.000000000,0.000000000,,,,,,
1766083671.026446,,,,,,,,,,,0.000000000,0.000000000,25.973369598,0.000000000,25.010070801,22.231292725
1766083671.128509,,,,,,,,,,,0.000000000,0.000000000,25.943674088,0.000000000,25.009033203,22.231292725
1766083671.230473,0.000000000,8.000000000,0.028440841,0.000874069,-75.838272095,1.000000000,0.027035147,0.000830868,1.000000000,0.000000000,,,,,,
1766083671.231872,,,,,,,,,,,0.000000000,0.000000000,25.948242188,0.000000000,25.008880615,22.231292725
1766083671.325446,,,,,,,,,,,0.000000000,0.000042662,25.936820984,0.000000000,25.009033203,22.231292725
1766083671.425461,,,,,,,,,,,0.000000000,0.000059842,25.939104080,0.000000000,25.009002686,22.231292725
1766083671.479314,0.000000000,8.000000000,-0.065304704,0.000874069,-75.838272095,1.000000000,-0.062077001,0.000830868,1.000000000,0.000000000,,,,,,
1766083671.525453,,,,,,,,,,,0.000000000,0.000000000,25.932250977,0.000000000,25.009613037,22.231292725
1766083671.625473,,,,,,,,,,,0.000000000,0.000011169,25.984792709,0.000000000,25.010131836,22.231292725
1766083671.725733,,,,,,,,,,,0.000000000,0.000000000,25.939104080,0.000000000,25.007843018,22.231292725
1766083671.727816,0.000000000,8.000000000,-0.093171746,0.000874069,-75.838272095,1.000000000,-0.088566706,0.000830868,1.000000000,0.000000000,,,,,,
1766083671.825480,,,,,,,,,,,0.000000000,0.000000000,25.939104080,0.000000000,25.008209229,22.231292725
1766083671.931541,,,,,,,,,,,0.000000000,0.000000000,25.945957184,0.000000000,25.008087158,22.231292725
1766083671.983645,0.000000000,8.000000000,-0.028168552,0.000874069,-75.838272095,1.000000000,-0.026776314,0.000830868,1.000000000,0.000000000,,,,,,
1766083672.025501,,,,,,,,,,,0.000000000,0.000000000,25.932250977,0.000000000,25.009460449,22.231292725
1766083672.125422,,,,,,,,,,,0.000000000,0.000020223,25.964233398,0.000000000,25.008789063,22.231292725
1766083672.225523,,,,,,,,,,,0.000000000,0.000073204,25.943674088,0.000000000,25.008483887,22.231292725
1766083672.227504,0.000000000,8.000000000,-0.017319810,0.002143280,-75.838317871,1.000000000,-0.016463771,0.002037387,1.000000000,-0.000390625,,,,,,
1766083672.324537,,,,,,,,,,,0.000000000,0.000000000,25.948242188,0.000000000,25.009277344,22.231292725
1766083672.424606,,,,,,,,,,,0.000000000,0.000000000,25.945957184,0.000000000,25.012542725,22.231292725
1766083672.484993,0.000000000,8.000000000,0.219035164,-0.000605595,-75.837974548,1.000000000,0.208209276,-0.000575703,1.000000000,0.000390625,,,,,,
1766083672.524561,,,,,,,,,,,0.000000000,0.000000000,25.945957184,0.000000000,25.011230469,22.231292725
1766083672.624549,,,,,,,,,,,0.000000000,-0.000000000,25.936820984,0.000000000,25.009918213,22.231292725
1766083672.724729,,,,,,,,,,,0.000000000,0.000000000,25.943674088,0.000000000,25.011047363,22.231292725
1766083672.726543,0.000000000,8.000000000,0.131004930,0.000621254,-75.837974548,1.000000000,0.124529965,0.000590548,1.000000000,0.000000000,,,,,,
1766083672.824530,,,,,,,,,,,0.000000000,0.000000000,25.955095291,0.000000000,25.011260986,22.231292725
1766083672.924600,,,,,,,,,,,0.000000000,0.000000000,25.932250977,0.000000000,25.009552002,22.231292725
1766083672.978436,0.000000000,8.000000000,0.008353621,0.000621254,-75.837974548,1.000000000,0.007940739,0.000590548,1.000000000,0.000000000,,,,,,
1766083673.024646,,,,,,,,,,,0.000000000,0.000000000,25.932250977,0.000000000,25.008453369,22.231292725
1766083673.124565,,,,,,,,,,,0.000000000,-0.000000000,25.934535980,0.000000000,25.008392334,22.231292725
1766083673.226624,0.000000000,8.000000000,-0.078809679,-0.006556491,-75.838188171,1.000000000,0.041543454,-0.000354139,1.000000000,0.002343750,,,,,,
1766083673.227072,,,,,,,,,,,0.000000000,0.000073701,25.936820984,0.000000000,25.010131836,22.231292725
1766083673.324593,,,,,,,,,,,0.000000000,0.000000000,25.936820984,0.000000000,25.009521484,22.231292725
1766083673.424671,,,,,,,,,,,0.000000000,0.000000000,25.945957184,0.000000000,25.008697510,22.231292725
1766083673.477360,0.000000000,8.000000000,0.161409825,0.002120975,-75.838294983,1.000000000,0.153432101,0.002016184,1.000000000,-0.000390625,,,,,,
1766083673.524539,,,,,,,,,,,0.000000000,0.000000000,25.955095291,0.000000000,25.009796143,22.231292725
1766083673.623536,,,,,,,,,,,0.000000000,0.000000000,26.571876526,0.000000000,25.009277344,22.231292725
1766083673.723641,,,,,,,,,,,0.000000000,0.000000000,26.092157364,0.000000000,25.009002686,22.231292725
1766083673.725770,0.000000000,8.000000000,-0.125925839,0.000623601,-75.837974548,1.000000000,-0.119701914,0.000592780,1.000000000,0.000000000,,,,,,
1766083673.823719,,,,,,,,,,,0.000000000,0.000000000,25.948242188,0.000000000,25.008331299,22.231292725
1766083673.923763,,,,,,,,,,,0.000000000,0.000000000,25.948242188,0.000000000,25.008087158,22.231292725
1766083673.979276,0.000000000,8.000000000,-0.058197804,0.003328459,-75.838279724,1.000000000,-0.055321358,0.003164027,1.000000000,-0.000781250,,,,,,
1766083674.029006,,,,,,,,,,,0.000000000,0.000000000,25.943674088,0.000000000,25.005981445,22.231292725
1766083674.123660,,,,,,,,,,,0.000000000,0.000000000,25.939104080,0.000000000,25.009185791,22.231292725
1766083674.223996,,,,,,,,,,,0.000000000,0.000000000,25.950527191,0.000000000,25.009063721,22.231292725
1766083674.225861,0.000000000,8.000000000,0.016769674,0.000873817,-75.838272095,1.000000000,0.015940826,0.000830628,1.000000000,0.000000000,,,,,,
1766083674.323766,,,,,,,,,,,0.000000000,0.000000000,25.945957184,0.000000000,25.009521484,22.231292725
1766083674.423599,,,,,,,,,,,0.000000000,0.000032480,25.925397873,0.000000000,25.008880615,22.231292725
1766083674.475860,0.000000000,8.000000000,-0.029833326,0.000873817,-75.838272095,1.000000000,-0.028358804,0.000830628,1.000000000,0.000000000,,,,,,
1766083674.523612,,,,,,,,,,,0.000000000,0.000000000,25.943674088,0.000000000,25.009613037,22.231292725
1766083674.623747,,,,,,,,,,,0.000000000,0.000000000,25.952810287,0.000000000,25.007873535,22.231292725
1766083674.723672,,,,,,,,,,,0.000000000,0.000000000,25.934535980,0.000000000,25.010742188,22.231292725
1766083674.725666,0.000000000,8.000000000,0.072757989,0.000880309,-75.838279724,1.000000000,0.069161907,0.000836799,1.000000000,0.000000000,,,,,,
1766083674.824677,,,,,,,,,,,0.000000000,0.000000000,25.943674088,0.000000000,25.009826660,22.231292725
1766083674.928351,,,,,,,,,,,0.000000000,0.000000000,25.959663391,0.000000000,25.009521484,22.231292725
1766083674.980384,0.000000000,8.000000000,0.030580409,0.000880309,-75.838279724,1.000000000,0.029068962,0.000836799,1.000000000,0.000000000,,,,,,
1766083675.022710,,,,,,,,,,,0.000000000,0.000000000,25.945957184,0.000000000,25.009887695,22.231292725
1766083675.122674,,,,,,,,,,,0.000000000,0.000158069,25.943674088,0.000000000,25.009857178,22.231292725
1766083675.222863,,,,,,,,,,,0.000000000,0.000000000,25.918544769,0.000000000,25.008605957,22.231292725
1766083675.224780,0.000000000,8.000000000,0.084412470,0.000880309,-75.838279724,1.000000000,0.080240354,0.000836799,1.000000000,0.000000000,,,,,,
1766083675.322675,,,,,,,,,,,0.000000000,0.000000000,25.941389084,0.000000000,25.009185791,22.231292725
1766083675.422688,,,,,,,,,,,0.000000000,0.000000000,25.964233398,0.000000000,25.010925293,22.231292725
1766083675.476515,0.000000000,8.000000000,-0.137931257,-0.001659141,-75.838165283,1.000000000,-0.131113961,-0.001577215,1.000000000,0.000781250,,,,,,
1766083675.522702,,,,,,,,,,,0.000000000,0.000038971,25.945957184,0.000000000,25.012451172,22.231292725
1766083675.622678,,,,,,,,,,,0.000000000,0.000000000,25.952810287,0.000000000,25.010467529,22.231292725
1766083675.722850,,,,,,,,,,,0.000000000,0.000000000,25.950527191,0.000000000,25.010192871,22.231292725
1766083675.728715,0.000000000,8.000000000,0.005700748,0.000889037,-75.838272095,1.000000000,0.005418986,0.000845096,1.000000000,0.000000000,,,,,,
1766083675.822671,,,,,,,,,,,0.000000000,0.000041034,25.945957184,0.000000000,25.010650635,22.231292725
1766083675.922753,,,,,,,,,,,0.000000000,0.000000000,25.941389084,0.000000000,25.010711670,22.231292725
1766083675.975549,0.000000000,8.000000000,-0.046954870,-0.000346728,-75.838264465,1.000000000,-0.044634111,-0.000329630,1.000000000,0.000390625,,,,,,
1766083676.022774,,,,,,,,,,,0.000000000,0.000050992,25.945957184,0.000000000,25.010345459,22.231292725
1766083676.122852,,,,,,,,,,,0.000000000,0.000000000,25.955095291,0.000000000,25.009887695,22.231292725
1766083676.221870,,,,,,,,,,,0.000000000,0.000000000,25.961948395,0.000000000,25.009765625,22.230957031
1766083676.223754,0.000000000,8.000000000,-0.041721717,-0.000445011,-75.838157654,1.000000000,-0.039659612,-0.000423055,1.000000000,0.000390625,,,,,,
1766083676.321728,,,,,,,,,,,0.000000000,0.000048538,25.941389084,0.000000000,25.009613037,22.229888916
1766083676.425145,,,,,,,,,,,0.000000000,0.000000000,25.957380295,0.000000000,25.010375977,22.229003906
1766083676.480050,0.000000000,8.000000000,0.036680054,-0.000510752,-75.838081360,1.000000000,0.034867130,-0.000485547,1.000000000,0.000390625,,,,,,
1766083676.527689,,,,,,,,,,,0.000000000,0.000102212,25.950527191,0.000000000,25.010131836,22.229003906
1766083676.621884,,,,,,,,,,,0.000000000,0.000000000,25.948242188,0.000000000,25.011535645,22.229003906
1766083676.721701,,,,,,,,,,,0.000000000,0.000005152,25.950527191,0.000000000,25.010314941,22.229003906
1766083676.724018,0.000000000,8.000000000,-0.026039198,-0.001599347,-75.838256836,1.000000000,-0.024752207,-0.001520377,1.000000000,0.000781250,,,,,,
1766083676.821896,,,,,,,,,,,0.000000000,0.000003585,25.936820984,0.000000000,25.011199951,22.229003906
1766083676.921716,,,,,,,,,,,0.000000000,0.000000000,25.950527191,0.000000000,25.010406494,22.229003906
1766083676.975638,0.000000000,8.000000000,-0.226816326,-0.001730829,-75.838088989,1.000000000,-0.215605855,-0.001645360,1.000000000,0.000781250,,,,,,
1766083677.023246,,,,,,,,,,,0.000000000,0.000000000,25.955095291,0.000000000,25.010314941,22.229003906
1766083677.126829,,,,,,,,,,,0.000000000,0.000000000,25.966516495,0.000000000,25.010681152,22.229003906
1766083677.221903,,,,,,,,,,,0.000000000,0.000000000,25.941389084,0.000000000,25.010284424,22.229003906
1766083677.225705,0.000000000,8.000000000,-0.142580062,0.000634325,-75.837974548,1.000000000,-0.135533005,0.000602973,1.000000000,0.000000000,,,,,,
1766083677.321929,,,,,,,,,,,0.000000000,0.000000000,25.957380295,0.000000000,25.010711670,22.229003906
1766083677.421904,,,,,,,,,,,0.000000000,0.000000000,25.959663391,0.000000000,25.009826660,22.229003906
1766083677.474514,0.000000000,8.000000000,-0.044451050,0.000634325,-75.837974548,1.000000000,-0.042254046,0.000602973,1.000000000,0.000000000,,,,,,
1766083677.520835,,,,,,,,,,,0.000000000,0.000000000,25.945957184,0.000000000,25.010253906,22.229003906
1766083677.620897,,,,,,,,,,,0.000000000,0.000000000,25.964233398,0.000000000,25.010894775,22.229003906
1766083677.721118,,,,,,,,,,,0.000000000,0.000000000,25.950527191,0.000000000,25.011901855,22.229003906
1766083677.722756,0.000000000,8.000000000,0.036006011,-0.001586166,-75.838249207,1.000000000,0.034226403,-0.001507847,1.000000000,0.000781250,,,,,,
1766083677.820750,,,,,,,,,,,0.000000000,0.000000000,25.943674088,0.000000000,25.011474609,22.229003906
1766083677.920834,,,,,,,,,,,0.000000000,0.000000000,25.920829773,0.000000000,25.010772705,22.229003906
1766083677.974660,0.000000000,8.000000000,-0.010924175,-0.008996554,-75.838188171,1.000000000,-0.010384247,-0.008552209,1.000000000,0.003125000,,,,,,
1766083678.021103,,,,,,,,,,,0.000000000,0.000000000,25.964233398,0.000000000,25.010894775,22.229003906
1766083678.120939,,,,,,,,,,,0.000000000,0.000030287,25.916261673,0.000000000,25.011535645,22.229003906
1766083678.221003,,,,,,,,,,,0.000000000,0.000039641,25.959663391,0.000000000,25.011383057,22.229003906
1766083678.222976,0.000000000,8.000000000,-0.078113556,-0.001592900,-75.838241577,1.000000000,-0.074252769,-0.001514248,1.000000000,0.000781250,,,,,,
1766083678.320961,,,,,,,,,,,0.000000000,0.000000000,25.959663391,0.000000000,25.010986328,22.229003906
1766083678.421049,,,,,,,,,,,0.000000000,0.000041430,25.945957184,0.000000000,25.010742188,22.229003906
1766083678.472948,0.000000000,8.000000000,-0.005451674,-0.001724382,-75.838073730,1.000000000,-0.005182223,-0.001639232,1.000000000,0.000781250,,,,,,
1766083678.520831,,,,,,,,,,,0.000000000,0.000000000,25.945957184,0.000000000,25.011596680,22.229003906
1766083678.624154,,,,,,,,,,,0.000000000,0.000000000,25.955095291,0.000000000,25.011810303,22.229003906
1766083678.720926,,,,,,,,,,,0.000000000,0.000005382,26.558170319,0.000000000,25.012634277,22.229003906
1766083678.722820,0.000000000,8.000000000,0.100382693,0.045209229,-75.838470459,1.000000000,0.095421247,0.042976156,1.000000000,-0.014062495,,,,,,
1766083678.819942,,,,,,,,,,,0.000000000,0.000000000,25.968801498,0.000000000,25.011444092,22.229003906
1766083678.920189,,,,,,,,,,,0.000000000,0.000000000,25.943674088,0.000000000,25.011871338,22.229003906
1766083678.973638,0.000000000,8.000000000,-0.088511206,-0.001586092,-75.838226318,1.000000000,-0.084136508,-0.001507777,1.000000000,0.000781250,,,,,,
1766083679.019898,,,,,,,,,,,0.000000000,0.000000000,25.939104080,0.000000000,25.009002686,22.229003906
1766083679.119972,,,,,,,,,,,0.000000000,0.000042806,25.955095291,0.000000000,25.011505127,22.229003906
1766083679.219909,,,,,,,,,,,0.000000000,0.000019533,25.943674088,0.000000000,25.011901855,22.229003906
1766083679.221846,0.000000000,8.000000000,-0.083993688,-0.001783315,-75.837974548,1.000000000,-0.079842277,-0.001695252,1.000000000,0.000781250,,,,,,
1766083679.319910,,,,,,,,,,,0.000000000,0.000000000,25.989360809,0.000000000,25.010284424,22.229003906
1766083679.424593,,,,,,,,,,,0.000000000,0.000000000,25.975654602,0.000000000,25.011444092,22.229003906
1766083679.479345,0.000000000,8.000000000,-0.023704974,0.002140407,-75.838272095,1.000000000,-0.022533348,0.002034656,1.000000000,-0.000390625,,,,,,
1766083679.519931,,,,,,,,,,,0.000000000,0.000000000,25.957380295,0.000000000,25.012084961,22.229003906
1766083679.619850,,,,,,,,,,,0.000000000,-0.000000000,25.948242188,0.000000000,25.011322021,22.229003906
1766083679.720001,,,,,,,,,,,0.000000000,0.000018961,25.907123566,0.000000000,25.011444092,22.229003906
1766083679.721841,0.000000000,8.000000000,-0.064780921,0.000913025,-75.838272095,1.000000000,-0.061579105,0.000867898,1.000000000,0.000000000,,,,,,
1766083679.819916,,,,,,,,,,,0.000000000,0.000000000,25.957380295,0.000000000,25.010925293,22.229003906
1766083679.919993,,,,,,,,,,,0.000000000,0.000000000,25.936820984,0.000000000,25.013092041,22.229003906
1766083679.972708,0.000000000,8.000000000,-0.070356883,0.000913025,-75.838272095,1.000000000,-0.066879474,0.000867898,1.000000000,0.000000000,,,,,,
1766083680.019938,,,,,,,,,,,0.000000000,0.000000101,25.959663391,0.000000000,25.011779785,22.229003906
1766083680.119187,,,,,,,,,,,0.000000000,0.000146565,25.941389084,0.000000000,25.013031006,22.229003906
1766083680.219032,,,,,,,,,,,0.000000000,0.000000000,25.939104080,0.000000000,25.012939453,22.229003906
1766083680.220995,0.000000000,8.000000000,0.150350094,0.003393020,-75.838302612,1.000000000,0.142918989,0.003225397,1.000000000,-0.000781250,,,,,,
1766083680.319272,,,,,,,,,,,0.000000000,0.000000000,25.975654602,0.000000000,25.012573242,22.229003906
1766083680.419112,,,,,,,,,,,0.000000000,0.000000000,25.913976669,0.000000000,25.010162354,22.229003906
1766083680.472853,0.000000000,8.000000000,0.050421037,-0.000564437,-75.837974548,1.000000000,0.047928963,-0.000536578,1.000000000,0.000390625,,,,,,
1766083680.519035,,,,,,,,,,,0.000000000,0.000000000,25.932250977,0.000000000,25.011901855,22.229003906
1766083680.619252,,,,,,,,,,,0.000000000,-0.000000000,25.941389084,0.000000000,25.012115479,22.229003906
1766083680.721728,0.000000000,8.000000000,-0.168336749,0.000662782,-75.837974548,1.000000000,-0.160016656,0.000630024,1.000000000,0.000000000,,,,,,
1766083680.722982,,,,,,,,,,,0.000000000,0.000000000,25.945957184,0.000000000,25.012512207,22.229003906
1766083680.825140,,,,,,,,,,,0.000000000,0.000000000,25.941389084,0.000000000,25.011962891,22.229003906
1766083680.919119,,,,,,,,,,,0.000000000,0.000000000,25.977939606,0.000000000,25.012237549,22.229003906
1766083680.971161,0.000000000,8.000000000,0.062669136,0.000662782,-75.837974548,1.000000000,0.059571691,0.000630024,1.000000000,0.000000000,,,,,,
1766083681.019103,,,,,,,,,,,0.000000000,0.000027833,25.884279251,0.000000000,25.012695313,22.229003906
1766083681.119096,,,,,,,,,,,0.000000000,-0.000000000,25.934535980,0.000000000,25.012329102,22.229003906
1766083681.219314,,,,,,,,,,,0.000000000,-0.000000000,25.939104080,0.000000000,25.012664795,22.228790283
1766083681.221006,0.000000000,8.000000000,-0.030120606,0.000662782,-75.837974548,1.000000000,-0.028631885,0.000630024,1.000000000,0.000000000,,,,,,
1766083681.319055,,,,,,,,,,,0.000000000,0.000006913,25.939104080,0.000000000,25.011993408,22.228790283
1766083681.417935,,,,,,,,,,,0.000000000,0.000000000,25.968801498,0.000000000,25.013366699,22.228790283
1766083681.478709,0.000000000,8.000000000,-0.015057597,0.000662782,-75.837974548,1.000000000,-0.014313370,0.000630024,1.000000000,0.000000000,,,,,,
1766083681.518135,,,,,,,,,,,0.000000000,0.000000000,25.943674088,0.000000000,25.011810303,22.228790283
1766083681.618031,,,,,,,,,,,0.000000000,0.000029068,25.936820984,0.000000000,25.011047363,22.228790283
1766083681.718032,,,,,,,,,,,0.000000000,0.000000000,25.932250977,0.000000000,25.014373779,22.228790283
1766083681.720066,0.000000000,8.000000000,0.162976056,0.000912832,-75.838272095,1.000000000,0.154920921,0.000867715,1.000000000,0.000000000,,,,,,
1766083681.818068,,,,,,,,,,,0.000000000,0.000000000,25.923114777,0.000000000,25.013214111,22.228790283
1766083681.918182,,,,,,,,,,,0.000000000,0.000000000,25.952810287,0.000000000,25.012634277,22.228790283
1766083681.971804,0.000000000,8.000000000,0.013034713,-0.002812748,-75.838211060,1.000000000,0.012390468,-0.002673845,1.000000000,0.001171875,,,,,,
1766083682.018251,,,,,,,,,,,0.000000000,0.000017852,25.936820984,0.000000000,25.013854980,22.228790283
1766083682.118360,,,,,,,,,,,0.000000000,0.000000000,25.934535980,0.000000000,25.012084961,22.228790283
1766083682.220863,0.000000000,8.000000000,-0.095007055,0.012040204,-75.838005066,1.000000000,-0.090311304,0.011445465,1.000000000,0.003125000,,,,,,
1766083682.222219,,,,,,,,,,,0.000000000,0.000016741,25.934535980,0.000000000,25.013854980,22.228790283
1766083682.324044,,,,,,,,,,,0.000000000,0.000000000,25.925397873,0.000000000,25.012634277,22.228668213
1766083682.418185,,,,,,,,,,,0.000000000,0.000000000,25.959663391,0.000000000,25.013946533,22.227966309
1766083682.470848,0.000000000,8.000000000,0.090823099,0.000660974,-75.837974548,1.000000000,0.086334139,0.000628305,1.000000000,0.000000000,,,,,,
1766083682.518135,,,,,,,,,,,0.000000000,0.000000000,25.939104080,0.000000000,25.013305664,22.227966309
1766083682.618163,,,,,,,,,,,0.000000000,0.000000000,25.961948395,0.000000000,25.015258789,22.227966309
1766083682.717141,,,,,,,,,,,0.000000000,0.110542931,25.799757004,0.000000000,25.012817383,22.220092773
1766083682.719197,0.000000000,8.000000000,-0.519430280,-1.235557437,-75.857139587,1.000000000,-0.493757278,-1.171012640,1.000000000,-0.355859429,,,,,,
1766083682.817174,,,,,,,,,,,0.000000000,0.089824565,25.870573044,0.000000000,25.012634277,22.213562012
1766083682.917056,,,,,,,,,,,0.000000000,0.009691700,25.781482697,0.000000000,25.012817383,22.212249756
1766083682.970956,0.000000000,8.000000000,-0.012803778,-1.011263251,-76.215698242,1.000000000,-0.012170948,-0.958966315,1.000000000,-2.711734295,,,,,,
1766083683.017158,,,,,,,,,,,0.000000000,0.114756890,25.866004944,0.000000000,25.011596680,22.212249756
1766083683.117252,,,,,,,,,,,0.000000000,0.000000000,25.861436844,0.000000000,25.011260986,22.212249756
1766083683.217135,,,,,,,,,,,0.000000000,0.264529049,25.840875626,0.000000000,25.011993408,22.211181641
1766083683.219033,0.000000000,8.000000000,-0.397022426,-0.751893938,-77.058242798,1.000000000,-0.377399474,-0.714750409,1.000000000,-2.808979750,,,,,,
1766083683.317187,,,,,,,,,,,0.000000000,0.000000000,25.866004944,0.000000000,25.012725830,22.211059570
1766083683.417143,,,,,,,,,,,0.000000000,0.014255885,25.856866837,0.000000000,25.011505127,22.211059570
1766083683.470946,0.000000000,8.000000000,-0.023189418,-0.821774423,-77.618904114,1.000000000,-0.022043273,-0.781178236,1.000000000,-2.797263861,,,,,,
1766083683.517556,,,,,,,,,,,0.000000000,0.000000000,25.859151840,0.000000000,25.012725830,22.211059570
1766083683.616880,,,,,,,,,,,0.000000000,0.000000000,25.838592529,0.000000000,25.011291504,22.210937500
1766083683.719652,0.000000000,8.000000000,0.106292240,-0.809935808,-78.459342957,1.000000000,0.101038724,-0.769923329,1.000000000,-2.797654390,,,,,,
1766083683.721152,,,,,,,,,,,0.000000000,0.021720387,25.834022522,0.000000000,25.011016846,22.207061768
1766083683.823174,,,,,,,,,,,0.000000000,0.063166671,26.501062393,0.000000000,25.010620117,22.205780029
1766083683.917275,,,,,,,,,,,0.000000000,0.037109572,25.875143051,0.000000000,25.010101318,22.205169678
1766083683.969930,0.000000000,8.000000000,-0.054116473,-0.814517796,-79.028472900,1.000000000,-0.051441744,-0.774277568,1.000000000,-2.823819876,,,,,,
1766083684.016168,,,,,,,,,,,0.000000000,0.000000000,25.884279251,0.000000000,25.009307861,22.205169678
1766083684.116248,,,,,,,,,,,0.000000000,0.000000000,25.872858047,0.000000000,25.008239746,22.205169678
1766083684.216334,,,,,,,,,,,0.000000000,0.015487961,25.852298737,0.000000000,25.007354736,22.205169678
1766083684.218147,0.000000000,8.000000000,-0.022933409,-0.907608628,-79.867309570,1.000000000,-0.021799922,-0.861597240,1.000000000,-2.810151339,,,,,,
1766083684.316188,,,,,,,,,,,0.000000000,0.000000000,25.891132355,0.000000000,25.007507324,22.205169678
1766083684.416345,,,,,,,,,,,0.000000000,0.101746976,25.861436844,0.000000000,25.007751465,22.205169678
1766083684.469938,0.000000000,8.000000000,-0.152515501,-0.980609179,-80.428627014,1.000000000,-0.144977376,-0.932162642,1.000000000,-2.796873331,,,,,,
1766083684.516202,,,,,,,,,,,0.000000000,0.119676471,25.856866837,0.000000000,25.006530762,22.205169678
1766083684.616183,,,,,,,,,,,0.000000000,0.000000000,25.852298737,0.000000000,25.006805420,22.205169678
1766083684.716165,,,,,,,,,,,0.000000000,0.117890626,25.847730637,0.000000000,25.004669189,22.205169678
1766083684.718222,0.000000000,8.000000000,-0.177900136,-0.987477601,-81.270935059,1.000000000,-0.169107363,-0.938690186,1.000000000,-2.810151339,,,,,,
1766083684.816257,,,,,,,,,,,0.000000000,0.000000000,25.852298737,0.000000000,25.003112793,22.205169678
1766083684.916309,,,,,,,,,,,0.000000000,0.006422345,25.868289948,0.000000000,25.003234863,22.205169678
1766083684.968403,0.000000000,8.000000000,-0.009244766,-1.026521087,-81.831825256,1.000000000,-0.008787841,-0.975804150,1.000000000,-2.808198690,,,,,,
1766083685.016276,,,,,,,,,,,0.000000000,0.105416857,25.859151840,0.000000000,25.003082275,22.205169678
1766083685.119211,,,,,,,,,,,0.000000000,0.092834458,25.850013733,0.000000000,25.002014160,22.205169678
1766083685.220185,0.000000000,8.000000000,-0.404292971,-1.089089990,-82.673515320,1.000000000,-0.132012367,-1.028672457,1.000000000,-2.803902864,,,,,,
1766083685.222562,,,,,,,,,,,0.000000000,0.273326457,25.854583740,0.000000000,25.002380371,22.205169678
1766083685.315395,,,,,,,,,,,0.000000000,0.071542904,25.863719940,0.000000000,25.001037598,22.205169678
1766083685.415553,,,,,,,,,,,0.000000000,0.129412562,25.854583740,0.000000000,24.999908447,22.205169678
1766083685.469001,0.000000000,8.000000000,-0.188036323,-1.088812828,-83.232971191,1.000000000,-0.178742573,-1.035016537,1.000000000,-2.814056635,,,,,,
1766083685.515383,,,,,,,,,,,0.000000000,0.000000000,25.854583740,0.000000000,24.999084473,22.205169678
1766083685.615486,,,,,,,,,,,0.000000000,0.000000000,25.834022522,0.000000000,24.999084473,22.205169678
1766083685.715456,,,,,,,,,,,0.000000000,0.156720132,25.863719940,0.000000000,24.997924805,22.205169678
1766083685.717397,0.000000000,8.000000000,-0.233506531,-1.164526939,-84.075050354,1.000000000,-0.221965402,-1.106989264,1.000000000,-2.805464983,,,,,,
1766083685.815211,,,,,,,,,,,0.000000000,0.000000000,25.838592529,0.000000000,24.999114990,22.205169678
1766083685.915259,,,,,,,,,,,0.000000000,0.148288786,25.884279251,0.000000000,24.998992920,22.205169678
1766083685.975361,0.000000000,8.000000000,-0.215478197,-1.205728650,-84.636291504,1.000000000,-0.204828128,-1.146154761,1.000000000,-2.802731276,,,,,,
1766083686.015492,,,,,,,,,,,0.000000000,0.092061855,25.868289948,0.000000000,24.995483398,22.205169678
1766083686.115304,,,,,,,,,,,0.000000000,0.000000000,25.850013733,0.000000000,24.996490479,22.205169678
1766083686.215254,,,,,,,,,,,0.000000000,0.000000000,25.886564255,0.000000000,24.994903564,22.205169678
1766083686.217344,0.000000000,8.000000000,0.047788613,-1.256373167,-85.479034424,1.000000000,0.045426644,-1.194296360,1.000000000,-2.801950216,,,,,,
1766083686.315350,,,,,,,,,,,0.000000000,0.839220822,24.445121765,0.000000000,24.994598389,22.205169678
1766083686.415401,,,,,,,,,,,0.000000000,0.127673358,25.799757004,0.000000000,24.992858887,22.205169678
1766083686.467988,0.000000000,8.000000000,0.188230395,0.652855456,-85.425910950,1.000000000,0.178927049,0.619437456,1.000000000,2.789051533,,,,,,
1766083686.515552,,,,,,,,,,,0.000000000,0.019955344,25.840875626,0.000000000,24.994415283,22.205169678
1766083686.614412,,,,,,,,,,,0.000000000,0.199090004,25.845445633,0.000000000,24.993774414,22.205169678
1766083686.714355,,,,,,,,,,,0.000000000,0.000000000,25.863719940,0.000000000,24.994506836,22.205169678
1766083686.716487,0.000000000,8.000000000,-0.080424957,0.577211261,-84.584701538,1.000000000,-0.076449931,0.548699617,1.000000000,2.827713966,,,,,,
1766083686.814322,,,,,,,,,,,0.000000000,0.373074383,25.838592529,0.000000000,24.992340088,22.205169678
1766083686.914467,,,,,,,,,,,0.000000000,0.026806328,25.813463211,0.000000000,24.994659424,22.205169678
1766083686.968134,0.000000000,8.000000000,0.036858052,0.681005418,-84.023551941,1.000000000,0.035036325,0.647365987,1.000000000,2.805063248,,,,,,
1766083687.014369,,,,,,,,,,,0.000000000,0.000000000,25.875143051,0.000000000,24.993164063,22.205169678
1766083687.114499,,,,,,,,,,,0.000000000,0.000000000,25.859151840,0.000000000,24.992218018,22.205169678
1766083687.214507,,,,,,,,,,,0.000000000,0.000000000,25.870573044,0.000000000,24.991729736,22.205169678
1766083687.216295,0.000000000,8.000000000,-0.094584413,0.759865344,-83.179382324,1.000000000,-0.089909546,0.722329259,1.000000000,2.794909477,,,,,,
1766083687.317878,,,,,,,,,,,0.000000000,0.000000000,25.834022522,0.000000000,24.992095947,22.205169678
1766083687.420132,,,,,,,,,,,0.000000000,0.106260069,25.879711151,0.000000000,24.993804932,22.205169678
1766083687.473882,0.000000000,8.000000000,0.157872438,0.708552301,-82.616004944,1.000000000,0.150069550,0.673549771,1.000000000,2.821074963,,,,,,
1766083687.514703,,,,,,,,,,,0.000000000,0.000000000,25.866004944,0.000000000,24.992401123,22.205169678
1766083687.614391,,,,,,,,,,,0.000000000,0.026343925,25.870573044,0.000000000,24.992889404,22.205169678
1766083687.714337,,,,,,,,,,,0.000000000,0.091359861,25.820316315,0.000000000,24.991973877,22.205169678
1766083687.716399,0.000000000,8.000000000,0.133528829,0.771201849,-81.772972107,1.000000000,0.126929119,0.733103335,1.000000000,2.816388607,,,,,,
1766083687.814396,,,,,,,,,,,0.000000000,0.000000000,25.850013733,0.000000000,24.991027832,22.205169678
1766083687.913534,,,,,,,,,,,0.000000000,0.000000000,25.879711151,0.000000000,24.990844727,22.205169678
1766083687.967252,0.000000000,8.000000000,-0.026775718,0.851356804,-81.212944031,1.000000000,-0.025452316,0.809298158,1.000000000,2.800767422,,,,,,
1766083688.013730,,,,,,,,,,,0.000000000,0.055434160,25.868289948,0.000000000,24.990020752,22.205169678
1766083688.113473,,,,,,,,,,,0.000000000,0.000000000,25.774629593,0.000000000,24.989227295,22.205169678
1766083688.213539,,,,,,,,,,,0.000000000,0.130790174,25.278919220,0.000000000,24.991027832,22.205169678
1766083688.215464,0.000000000,8.000000000,-1.617416501,-2.974721909,-80.950691223,1.000000000,-1.537475228,-2.820763588,1.000000000,0.549206078,,,,,,
1766083688.313614,,,,,,,,,,,0.000000000,0.000000000,25.927682877,0.000000000,24.989318848,22.205169678
1766083688.413548,,,,,,,,,,,0.000000000,0.001152428,25.929967880,0.000000000,24.990722656,22.201080322
1766083688.467235,0.000000000,8.000000000,0.145290062,0.055222854,-80.954856873,1.000000000,0.138109058,0.052490678,1.000000000,0.027734350,,,,,,
1766083688.513402,,,,,,,,,,,0.000000000,0.003202814,25.923114777,0.000000000,24.990692139,22.209136963
1766083688.613538,,,,,,,,,,,0.000000000,0.000253652,25.939104080,0.000000000,24.991119385,22.215057373
1766083688.713425,,,,,,,,,,,0.000000000,0.045074560,25.829454422,0.000000000,24.992401123,22.219329834
1766083688.715452,0.000000000,8.000000000,-0.668180883,-1.081327200,-80.952041626,1.000000000,-0.635155857,-1.027920842,1.000000000,-0.006640626,,,,,,
1766083688.814287,,,,,,,,,,,0.000000000,0.655673146,25.498220444,0.000000000,24.988952637,22.219329834
1766083688.918046,,,,,,,,,,,0.000000000,0.320773512,26.158405304,0.000000000,24.988281250,22.219329834
1766083688.972620,0.000000000,8.000000000,-0.477504611,-0.334371716,-81.339973450,1.000000000,-0.453903794,-0.317856610,1.000000000,-2.886707306,,,,,,
1766083689.013463,,,,,,,,,,,0.000000000,0.000000000,25.886564255,0.000000000,24.990570068,22.219329834
1766083689.113487,,,,,,,,,,,0.000000000,0.000000000,25.859151840,0.000000000,24.991546631,22.219329834
1766083689.212435,,,,,,,,,,,0.000000000,0.000000000,25.859151840,0.000000000,24.992431641,22.219329834
1766083689.214565,0.000000000,8.000000000,0.202332437,-0.633337915,-82.180343628,1.000000000,0.192332089,-0.602054298,1.000000000,-2.806648731,,,,,,
1766083689.312602,,,,,,,,,,,0.000000000,0.089094155,25.859151840,0.000000000,24.991882324,22.219329834
1766083689.412553,,,,,,,,,,,0.000000000,0.311431855,25.820316315,0.000000000,24.991729736,22.219329834
1766083689.466327,0.000000000,8.000000000,-0.464005619,-0.672652125,-82.740913391,1.000000000,-0.441071987,-0.639425576,1.000000000,-2.804696083,,,,,,
1766083689.512494,,,,,,,,,,,0.000000000,0.121192306,25.854583740,0.000000000,24.991210938,22.219329834
1766083689.612476,,,,,,,,,,,0.000000000,0.000000000,25.852298737,0.000000000,24.990631104,22.219329834
1766083689.712427,,,,,,,,,,,0.000000000,0.019654844,25.843160629,0.000000000,24.992034912,22.219329834
1766083689.714810,0.000000000,8.000000000,-0.026335746,-0.741673052,-83.582206726,1.000000000,-0.025034092,-0.705035806,1.000000000,-2.798447609,,,,,,
1766083689.812555,,,,,,,,,,,0.000000000,0.307188153,25.834022522,0.000000000,24.990905762,22.219329834
1766083689.912455,,,,,,,,,,,0.000000000,0.032042462,25.856866837,0.000000000,24.990478516,22.219329834
1766083689.964705,0.000000000,8.000000000,-0.047308329,-0.741073251,-84.143600464,1.000000000,-0.044970103,-0.703293025,1.000000000,-2.809382439,,,,,,
1766083690.012469,,,,,,,,,,,0.000000000,0.000000000,25.836307526,0.000000000,24.991394043,22.219329834
1766083690.112524,,,,,,,,,,,0.000000000,0.328311801,24.780925751,0.000000000,24.991943359,22.219329834
1766083690.212460,,,,,,,,,,,0.000000000,0.000000000,25.767776489,0.000000000,24.990173340,22.219329834
1766083690.214690,0.000000000,8.000000000,-1.516679406,-3.343085051,-84.657478333,1.000000000,-1.441717029,-3.177956104,1.000000000,0.864834189,,,,,,
1766083690.316186,,,,,,,,,,,0.000000000,-0.000000000,25.927682877,0.000000000,24.990295410,22.219329834
1766083690.418550,,,,,,,,,,,0.000000000,0.000064749,25.929967880,0.000000000,24.989715576,22.235900879
1766083690.471965,0.000000000,8.000000000,-0.008806109,-0.088764288,-84.655792236,1.000000000,-0.008370861,-0.084377088,1.000000000,0.000000000,,,,,,
1766083690.511479,,,,,,,,,,,0.000000000,0.015022106,25.945957184,0.000000000,24.989532471,22.241546631
1766083690.611469,,,,,,,,,,,0.000000000,0.592301726,25.555330276,0.000000000,24.990753174,22.239166260
1766083690.711489,,,,,,,,,,,0.000000000,0.083539121,25.861436844,0.000000000,24.990478516,22.236236572
1766083690.713537,0.000000000,8.000000000,0.122474827,0.572895050,-84.286628723,1.000000000,0.116421469,0.544597089,1.000000000,2.824204206,,,,,,
1766083690.811533,,,,,,,,,,,0.000000000,0.069208451,25.877426147,0.000000000,24.989715576,22.236236572
1766083690.911434,,,,,,,,,,,0.000000000,0.020514244,25.840875626,0.000000000,24.989562988,22.236236572
1766083690.965414,0.000000000,8.000000000,0.029531553,0.627921939,-83.724342346,1.000000000,0.028071947,0.596904993,1.000000000,2.816784143,,,,,,
1766083691.011505,,,,,,,,,,,0.000000000,0.046521619,25.852298737,0.000000000,24.990661621,22.236236572
1766083691.111566,,,,,,,,,,,0.000000000,0.115113899,25.872858047,0.000000000,24.990692139,22.236236572
1766083691.211542,,,,,,,,,,,0.000000000,0.084547207,25.859151840,0.000000000,24.990020752,22.236236572
1766083691.213619,0.000000000,8.000000000,0.122298852,0.664792120,-82.881263733,1.000000000,0.116254196,0.631952584,1.000000000,2.820298910,,,,,,
1766083691.311501,,,,,,,,,,,0.000000000,0.049556468,25.847730637,0.000000000,24.990081787,22.236236572
1766083691.411551,,,,,,,,,,,0.000000000,0.044441149,25.843160629,0.000000000,24.988861084,22.236236572
1766083691.463959,0.000000000,8.000000000,0.057920817,0.760888934,-82.318252563,1.000000000,0.055058062,0.723301768,1.000000000,2.799600840,,,,,,
1766083691.511568,,,,,,,,,,,0.000000000,0.257198662,25.852298737,0.000000000,24.988891602,22.236236572
1766083691.611629,,,,,,,,,,,0.000000000,0.084524110,25.836307526,0.000000000,24.988128662,22.236236572
1766083691.711670,,,,,,,,,,,0.000000000,0.000000000,25.863719940,0.000000000,24.989288330,22.236236572
1766083691.713626,0.000000000,8.000000000,-0.149847090,0.747935653,-81.474227905,1.000000000,-0.142440856,0.709815264,1.000000000,2.819127321,,,,,,
1766083691.811431,,,,,,,,,,,0.000000000,0.112010293,25.827169418,0.000000000,24.988769531,22.236236572
1766083691.915453,,,,,,,,,,,0.000000000,0.106101803,25.856866837,0.000000000,24.989410400,22.236236572
1766083691.969810,0.000000000,8.000000000,0.155087918,0.779058695,-80.915679932,1.000000000,0.147422656,0.740571618,1.000000000,2.819127321,,,,,,
1766083692.010599,,,,,,,,,,,0.000000000,0.030121125,25.861436844,0.000000000,24.988037109,22.236236572
1766083692.110662,,,,,,,,,,,0.000000000,1.770613074,25.196681976,0.000000000,24.987457275,22.236236572
1766083692.210601,,,,,,,,,,,0.000000000,0.000000000,25.829454422,67108864.000000000,24.988067627,22.236236572
1766083692.212702,67108864.000000000,1.000000000,-0.973752081,-3.477092981,-80.751869202,3.000000000,-0.925624073,-1.841933012,1.000000000,-2.380873919,,,,,,
1766083692.311095,,,,,,,,,,,0.000000000,0.000000000,25.859151840,67108864.000000000,24.986816406,22.236236572
1766083692.410565,,,,,,,,,,,0.000000000,0.000000000,25.870573044,67108864.000000000,24.986602783,22.233520508
1766083692.464418,67108864.000000000,1.000000000,-0.973752081,-3.477092981,-81.177116394,3.000000000,-0.925624073,-3.186723948,1.000000000,-1.977056623,,,,,,
1766083692.510768,,,,,,,,,,,0.000000000,0.000000000,25.861436844,67108864.000000000,24.984497070,22.233367920
1766083692.610709,,,,,,,,,,,0.000000000,0.000000000,25.877426147,67108864.000000000,24.985626221,22.233367920
1766083692.710627,,,,,,,,,,,0.000000000,0.000000000,25.856866837,67108864.000000000,24.985229492,22.233367920
1766083692.712656,67108864.000000000,1.000000000,-0.973752081,-3.477092981,-81.676399231,3.000000000,-0.925624073,-5.148603439,1.000000000,-1.427023053,,,,,,
1766083692.810666,,,,,,,,,,,0.000000000,0.000000000,25.877426147,67108864.000000000,24.983398438,22.233367920
1766083692.910822,,,,,,,,,,,0.000000000,0.000000000,25.866004944,67108864.000000000,24.985351563,22.233367920
1766083692.963432,67108864.000000000,1.000000000,-0.973752081,-3.477092981,-81.915893555,3.000000000,-0.925624073,-6.575896263,1.000000000,-1.045359135,,,,,,
1766083693.011154,,,,,,,,,,,0.000000000,0.000000000,25.847730637,67108864.000000000,24.980438232,22.233367920
1766083693.109701,,,,,,,,,,,0.000000000,0.000000000,25.884279251,67108864.000000000,24.980377197,22.233367920
1766083693.209635,,,,,,,,,,,0.000000000,0.000000000,25.870573044,67108864.000000000,24.978546143,22.233367920
1766083693.211600,67108864.000000000,1.000000000,-0.973752081,-3.477092981,-82.138381958,3.000000000,-0.925624073,-8.658894539,1.000000000,-0.528140068,,,,,,
1766083693.310360,,,,,,,,,,,0.000000000,0.000000000,25.877426147,67108864.000000000,24.976074219,22.233367920
1766083693.414280,,,,,,,,,,,0.000000000,0.000000000,25.859151840,67108864.000000000,24.975860596,22.233367920
1766083693.467609,67108864.000000000,1.000000000,-0.973752081,-3.477092981,-82.207550049,3.000000000,-0.925624073,-9.995076180,1.000000000,-0.222673833,,,,,,
1766083693.509742,,,,,,,,,,,0.000000000,0.000000000,25.888849258,67108864.000000000,24.974761963,22.233367920
1766083693.610000,,,,,,,,,,,0.000000000,0.000000000,25.850013733,67108864.000000000,24.969848633,22.233367920
1766083693.709797,,,,,,,,,,,0.000000000,0.000000000,25.861436844,67108864.000000000,24.970581055,22.229370117
1766083693.712077,67108864.000000000,1.000000000,-0.973752081,-3.477092981,-82.222946167,3.000000000,-0.925624073,-11.324090004,1.000000000,-0.014453120,,,,,,
1766083693.809887,,,,,,,,,,,0.000000000,0.000000000,25.891132355,67108864.000000000,24.965087891,22.220184326
1766083693.909722,,,,,,,,,,,0.000000000,0.000000000,26.464511871,67108864.000000000,24.964019775,22.214782715
1766083693.961888,67108864.000000000,1.000000000,-0.973752081,-3.477092981,-82.222694397,3.000000000,-0.925624073,-11.817142487,1.000000000,-0.010156249,,,,,,
1766083694.009979,,,,,,,,,,,0.000000000,0.000000000,25.945957184,67108864.000000000,24.960693359,22.213104248
1766083694.110087,,,,,,,,,,,0.000000000,0.000000000,25.850013733,67108864.000000000,24.957641602,22.212249756
1766083694.209790,,,,,,,,,,,0.000000000,0.000000000,25.863719940,67108864.000000000,24.955413818,22.212219238
1766083694.212008,67108864.000000000,1.000000000,-0.973752081,-3.477092981,-82.222938538,3.000000000,-0.925624073,-12.546283722,1.000000000,-0.007031251,,,,,,
1766083694.309742,,,,,,,,,,,0.000000000,0.000000000,25.925397873,67108864.000000000,24.951446533,22.212219238
1766083694.408752,,,,,,,,,,,0.000000000,0.000000000,25.941389084,67108864.000000000,24.947235107,22.212219238
1766083694.460979,67108864.000000000,1.000000000,-0.973752081,-3.477092981,-82.222663879,3.000000000,-0.925624073,-3.727568150,1.000000000,0.001171875,,,,,,
1766083694.508891,,,,,,,,,,,0.000000000,0.000000000,25.932250977,67108864.000000000,24.945953369,22.212219238
1766083694.608828,,,,,,,,,,,0.000000000,0.000000000,25.920829773,67108864.000000000,24.942871094,22.212219238
1766083694.708778,,,,,,,,,,,0.000000000,0.000000000,25.957380295,67108864.000000000,24.938690186,22.212219238
1766083694.710738,67108864.000000000,1.000000000,-0.973752081,-3.477092981,-82.222732544,3.000000000,-0.925624073,-3.686735630,1.000000000,-0.012499996,,,,,,
1766083694.810212,,,,,,,,,,,0.000000000,0.000000000,25.934535980,67108864.000000000,24.935089111,22.212219238
1766083694.914595,,,,,,,,,,,0.000000000,0.000000000,25.948242188,67108864.000000000,24.931457520,22.212219238
1766083694.968595,67108864.000000000,1.000000000,-0.973752081,-3.477092981,-82.222343445,3.000000000,-0.925624073,-3.766319275,1.000000000,0.014062495,,,,,,
1766083695.008776,,,,,,,,,,,0.000000000,0.000000000,25.945957184,67108864.000000000,24.929016113,22.212219238
1766083695.108879,,,,,,,,,,,0.000000000,0.000000000,25.936820984,67108864.000000000,24.924774170,22.212219238
1766083695.208811,,,,,,,,,,,0.000000000,0.000000000,25.961948395,67108864.000000000,24.921478271,22.212219238
1766083695.210757,67108864.000000000,1.000000000,-0.973752081,-3.477092981,-82.222534180,3.000000000,-0.925624073,-3.751014709,1.000000000,0.008984375,,,,,,
1766083695.308819,,,,,,,,,,,0.000000000,0.000000000,25.982507706,67108864.000000000,24.919006348,22.212219238
1766083695.408848,,,,,,,,,,,0.000000000,0.000000000,25.936820984,67108864.000000000,24.916595459,22.212219238
1766083695.460904,67108864.000000000,1.000000000,-0.973752081,-3.477092981,-82.222602844,3.000000000,-0.925624073,-3.760276556,1.000000000,0.012109372,,,,,,
1766083695.508971,,,,,,,,,,,0.000000000,0.000000000,25.939104080,67108864.000000000,24.912414551,22.212219238
1766083695.608932,,,,,,,,,,,0.000000000,0.000000000,25.943674088,67108864.000000000,24.909332275,22.212219238
1766083695.707750,,,,,,,,,,,0.000000000,0.000000000,25.918544769,67108864.000000000,24.906311035,22.212219238
1766083695.709855,67108864.000000000,1.000000000,-0.973752081,-3.477092981,-82.222930908,3.000000000,-0.925624073,-3.693622589,1.000000000,-0.010156249,,,,,,
1766083695.807790,,,,,,,,,,,0.000000000,0.000000000,25.932250977,67108864.000000000,24.903686523,22.212219238
1766083695.907836,,,,,,,,,,,0.000000000,0.000000000,25.936820984,67108864.000000000,24.901153564,22.212219238
1766083695.960158,67108864.000000000,1.000000000,-0.973752081,-3.477092981,-82.222343445,3.000000000,-0.925624073,-3.743045330,1.000000000,0.006250001,,,,,,
1766083696.007870,,,,,,,,,,,0.000000000,0.000000000,25.932250977,67108864.000000000,24.897766113,22.212219238
1766083696.107982,,,,,,,,,,,0.000000000,0.000000000,25.934535980,67108864.000000000,24.895172119,22.212219238
1766083696.207931,,,,,,,,,,,0.000000000,0.000000000,25.943674088,67108864.000000000,24.892150879,22.212219238
1766083696.209765,67108864.000000000,1.000000000,-0.973752081,-3.477092981,-82.222969055,3.000000000,-0.925624073,-3.718090773,1.000000000,-0.001953125,,,,,,
1766083696.307777,,,,,,,,,,,0.000000000,0.000000000,25.939104080,67108864.000000000,24.888183594,22.212219238
1766083696.411893,,,,,,,,,,,0.000000000,0.000000000,25.934535980,67108864.000000000,24.887329102,22.212219238
1766083696.460190,67108864.000000000,1.000000000,-0.973752081,-3.477092981,-82.222961426,3.000000000,-0.925624073,-3.723946095,1.000000000,0.000000000,,,,,,
1766083696.507883,,,,,,,,,,,0.000000000,0.000000000,25.971086502,67108864.000000000,24.883911133,22.212219238
1766083696.608124,,,,,,,,,,,0.000000000,0.000000000,25.943674088,67108864.000000000,24.880401611,22.212219238
1766083696.707825,,,,,,,,,,,0.000000000,0.000000000,25.945957184,67108864.000000000,24.877868652,22.212219238
1766083696.709943,67108864.000000000,1.000000000,-0.973752081,-3.477092981,-82.222961426,3.000000000,-0.925624073,-3.723993301,1.000000000,0.000000000,,,,,,
1766083696.807993,,,,,,,,,,,0.000000000,0.000000000,25.936820984,67108864.000000000,24.874084473,22.212219238
1766083696.908034,,,,,,,,,,,0.000000000,0.000000000,25.936820984,67108864.000000000,24.872222900,22.212219238
1766083696.959242,67108864.000000000,1.000000000,-0.973752081,-3.477092981,-82.222961426,3.000000000,-0.925624073,-3.723993301,1.000000000,0.000000000,,,,,,
1766083697.007172,,,,,,,,,,,0.000000000,0.000000000,25.952810287,67108864.000000000,24.867034912,22.212219238
1766083697.107059,,,,,,,,,,,0.000000000,0.000000000,25.964233398,67108864.000000000,24.868041992,22.212219238
1766083697.207056,,,,,,,,,,,0.000000000,0.000000000,25.964233398,67108864.000000000,24.862823486,22.212219238
1766083697.208959,67108864.000000000,1.000000000,-0.973752081,-3.477092981,-82.222961426,3.000000000,-0.925624073,-3.723993301,1.000000000,0.000000000,,,,,,
1766083697.306772,,,,,,,,,,,0.000000000,0.000000000,25.943674088,67108864.000000000,24.859405518,22.212219238
1766083697.406880,,,,,,,,,,,0.000000000,0.000000000,25.945957184,67108864.000000000,24.859283447,22.212219238
1766083697.459178,67108864.000000000,1.000000000,-0.973752081,-3.477092981,-82.222961426,3.000000000,-0.925624073,-3.723993301,1.000000000,0.000000000,,,,,,
1766083697.510696,,,,,,,,,,,0.000000000,0.000000000,25.966516495,67108864.000000000,24.855682373,22.212219238
1766083697.612804,,,,,,,,,,,0.000000000,0.000000000,25.959663391,67108864.000000000,24.853363037,22.212219238
1766083697.707033,,,,,,,,,,,0.000000000,0.000000000,25.923114777,67108864.000000000,24.849884033,22.212219238
1766083697.708894,67108864.000000000,1.000000000,-0.973752081,-3.477092981,-82.222961426,3.000000000,-0.925624073,-3.723993301,1.000000000,0.000000000,,,,,,
1766083697.806927,,,,,,,,,,,0.000000000,0.000000000,25.923114777,67108864.000000000,24.849212646,22.212219238
1766083697.907012,,,,,,,,,,,0.000000000,0.000000000,25.939104080,67108864.000000000,24.845092773,22.212219238
1766083697.959010,67108864.000000000,1.000000000,-0.973752081,-3.477092981,-82.222496033,3.000000000,-0.925624073,-3.766329527,1.000000000,0.014062495,,,,,,
1766083698.007055,,,,,,,,,,,0.000000000,0.000000000,25.929967880,67108864.000000000,24.841522217,22.212219238
1766083698.106880,,,,,,,,,,,0.000000000,0.000000000,25.925397873,67108864.000000000,24.839752197,22.213775635
