__time,/odrive_axis0/odrive_status/active_errors,/odrive_axis0/odrive_status/bus_current,/odrive_axis0/odrive_status/bus_voltage,/odrive_axis0/odrive_status/disarm_reason,/odrive_axis0/odrive_status/fet_temperature,/odrive_axis0/odrive_status/motor_temperature,/odrive_axis1/odrive_status/active_errors,/odrive_axis1/odrive_status/bus_current,/odrive_axis1/odrive_status/bus_voltage,/odrive_axis1/odrive_status/disarm_reason,/odrive_axis1/odrive_status/fet_temperature,/odrive_axis1/odrive_status/motor_temperature,/odrive_axis2/odrive_status/active_errors,/odrive_axis2/odrive_status/bus_current,/odrive_axis2/odrive_status/bus_voltage,/odrive_axis2/odrive_status/disarm_reason,/odrive_axis2/odrive_status/fet_temperature,/odrive_axis2/odrive_status/motor_temperature,/odrive_axis3/odrive_status/active_errors,/odrive_axis3/odrive_status/bus_current,/odrive_axis3/odrive_status/bus_voltage,/odrive_axis3/odrive_status/disarm_reason,/odrive_axis3/odrive_status/fet_temperature,/odrive_axis3/odrive_status/motor_temperature,/odrive_axis4/odrive_status/active_errors,/odrive_axis4/odrive_status/bus_current,/odrive_axis4/odrive_status/bus_voltage,/odrive_axis4/odrive_status/disarm_reason,/odrive_axis4/odrive_status/fet_temperature,/odrive_axis4/odrive_status/motor_temperature,/odrive_axis5/odrive_status/active_errors,/odrive_axis5/odrive_status/bus_current,/odrive_axis5/odrive_status/bus_voltage,/odrive_axis5/odrive_status/disarm_reason,/odrive_axis5/odrive_status/fet_temperature,/odrive_axis5/odrive_status/motor_temperature
1766097774.733907,,,,,,,0.000000000,0.000000000,25.904838562,0.000000000,24.250152588,25.427459717,,,,,,,,,,,,,,,,,,,,,,,,
1766097774.734233,0.000000000,0.000000000,25.952810287,0.000000000,23.780822754,22.372497559,,,,,,,,,,,,,,,,,,,,,,,,,,,,,,
1766097774.737737,,,,,,,,,,,,,0.000000000,0.000000000,25.945957184,0.000000000,24.153045654,22.264739990,,,,,,,,,,,,,,,,,,
1766097774.833990,0.000000000,0.000112288,25.964233398,0.000000000,23.780029297,22.372497559,,,,,,,,,,,,,,,,,,,,,,,,,,,,,,
1766097774.834349,,,,,,,0.000000000,0.000000000,25.893417358,0.000000000,24.249298096,25.427459717,,,,,,,,,,,,,,,,,,,,,,,,
1766097774.839702,,,,,,,,,,,,,0.000000000,0.000054615,25.900270462,0.000000000,24.151702881,22.264739990,,,,,,,,,,,,,,,,,,
1766097774.839997,,,,,,,,,,,,,,,,,,,0.000000000,0.000000000,25.982507706,0.000000000,23.834167480,22.893676758,,,,,,,,,,,,
1766097774.845293,,,,,,,,,,,,,,,,,,,,,,,,,0.000000000,0.000173323,25.913976669,0.000000000,23.672790527,25.118865967,,,,,,
1766097774.848723,,,,,,,,,,,,,,,,,,,,,,,,,,,,,,,0.000000000,0.000022309,25.959663391,0.000000000,23.778808594,21.882568359
1766097774.927146,,,,,,,,,,,,,,,,,,,0.000000000,0.000000000,25.927682877,0.000000000,23.832153320,22.893676758,,,,,,,,,,,,
1766097774.932828,,,,,,,0.000000000,0.000000000,25.927682877,0.000000000,24.250610352,25.427459717,,,,,,,,,,,,,,,,,,,,,,,,
1766097774.934242,0.000000000,0.000000000,25.998498917,0.000000000,23.779327393,22.372497559,,,,,,,,,,,,,,,,,,,,,,,,,,,,,,
1766097774.935626,,,,,,,,,,,,,0.000000000,0.000029793,25.904838562,0.000000000,24.153045654,22.264739990,,,,,,,,,,,,,,,,,,
1766097774.944653,,,,,,,,,,,,,,,,,,,,,,,,,0.000000000,0.000000000,25.927682877,0.000000000,23.674163818,25.118865967,,,,,,
1766097774.947398,,,,,,,,,,,,,,,,,,,,,,,,,,,,,,,0.000000000,0.000000000,25.943674088,0.000000000,23.777191162,21.882568359
1766097775.027235,,,,,,,,,,,,,,,,,,,0.000000000,0.000000000,25.952810287,0.000000000,23.832794189,22.893676758,,,,,,,,,,,,
1766097775.032507,,,,,,,0.000000000,0.000000000,25.888849258,0.000000000,24.252502441,25.427459717,,,,,,,,,,,,,,,,,,,,,,,,
1766097775.034019,0.000000000,0.000000000,25.886564255,0.000000000,23.782196045,22.372497559,,,,,,,,,,,,,,,,,,,,,,,,,,,,,,
1766097775.036270,,,,,,,,,,,,,0.000000000,0.000045748,25.923114777,0.000000000,24.153472900,22.264739990,,,,,,,,,,,,,,,,,,
1766097775.039481,,,,,,,,,,,,,,,,,,,,,,,,,0.000000000,-0.000000000,25.911691666,0.000000000,23.676452637,25.118865967,,,,,,
1766097775.041238,,,,,,,,,,,,,,,,,,,,,,,,,,,,,,,0.000000000,0.000083308,25.961948395,0.000000000,23.778839111,21.882568359
1766097775.128349,,,,,,,,,,,,,,,,,,,0.000000000,0.000000000,26.405117035,0.000000000,23.833343506,22.893676758,,,,,,,,,,,,
1766097775.133006,,,,,,,0.000000000,0.000023405,26.274908066,0.000000000,24.252410889,25.427398682,,,,,,,,,,,,,,,,,,,,,,,,
1766097775.134332,0.000000000,0.000000000,26.254348755,0.000000000,23.781677246,22.372497559,,,,,,,,,,,,,,,,,,,,,,,,,,,,,,
1766097775.134787,,,,,,,,,,,,,0.000000000,0.000000000,26.370851517,0.000000000,24.154907227,22.264739990,,,,,,,,,,,,,,,,,,
1766097775.140352,,,,,,,,,,,,,,,,,,,,,,,,,0.000000000,0.000000000,26.229221344,0.000000000,23.676513672,25.118865967,,,,,,
1766097775.140775,,,,,,,,,,,,,,,,,,,,,,,,,,,,,,,0.000000000,-0.000000000,26.210945129,0.000000000,23.778259277,21.882568359
1766097775.231855,,,,,,,0.000000000,0.000000000,25.891132355,0.000000000,24.255767822,25.427398682,,,,,,,,,,,,,,,,,,,,,,,,
1766097775.233793,,,,,,,,,,,,,0.000000000,-0.000000000,25.948242188,0.000000000,24.155029297,22.264739990,,,,,,,,,,,,,,,,,,
1766097775.234140,0.000000000,0.000113680,25.893417358,0.000000000,23.782623291,22.372497559,,,,,,,,,,,,,,,,,,,,,,,,,,,,,,
1766097775.235586,,,,,,,,,,,,,,,,,,,0.000000000,0.000035729,25.941389084,0.000000000,23.834777832,22.893676758,,,,,,,,,,,,
1766097775.239844,,,,,,,,,,,,,,,,,,,,,,,,,0.000000000,0.000416579,25.913976669,0.000000000,23.677642822,25.118865967,,,,,,
1766097775.241489,,,,,,,,,,,,,,,,,,,,,,,,,,,,,,,0.000000000,0.000030308,25.941389084,0.000000000,23.780883789,21.882568359
1766097775.332734,,,,,,,0.000000000,0.000000000,25.907123566,0.000000000,24.256347656,25.427398682,,,,,,,,,,,,,,,,,,,,,,,,
1766097775.333831,0.000000000,0.000000000,25.920829773,0.000000000,23.783721924,22.372497559,,,,,,,,,,,,,,,,,,,,,,,,,,,,,,
1766097775.337076,,,,,,,,,,,,,0.000000000,0.000000000,25.968801498,0.000000000,24.153533936,22.264739990,,,,,,,,,,,,,,,,,,
1766097775.337534,,,,,,,,,,,,,,,,,,,0.000000000,0.000041692,25.939104080,0.000000000,23.835540771,22.893676758,,,,,,,,,,,,
1766097775.344944,,,,,,,,,,,,,,,,,,,,,,,,,0.000000000,0.000053376,25.902555466,0.000000000,23.676422119,25.118865967,,,,,,
1766097775.348785,,,,,,,,,,,,,,,,,,,,,,,,,,,,,,,0.000000000,0.000000000,25.948242188,0.000000000,23.781585693,21.882568359
1766097775.426046,,,,,,,,,,,,,,,,,,,0.000000000,0.000006843,25.916261673,0.000000000,23.835601807,22.893676758,,,,,,,,,,,,
1766097775.431849,,,,,,,0.000000000,0.000000000,25.916261673,0.000000000,24.256469727,25.427398682,,,,,,,,,,,,,,,,,,,,,,,,
1766097775.435125,0.000000000,0.000007585,25.920829773,0.000000000,23.783721924,22.372497559,,,,,,,,,,,,,,,,,,,,,,,,,,,,,,
1766097775.437737,,,,,,,,,,,,,0.000000000,0.000000000,25.975654602,0.000000000,24.157135010,22.264739990,,,,,,,,,,,,,,,,,,
1766097775.442254,,,,,,,,,,,,,,,,,,,,,,,,,0.000000000,0.000063447,25.923114777,0.000000000,23.678802490,25.118865967,,,,,,
1766097775.446453,,,,,,,,,,,,,,,,,,,,,,,,,,,,,,,0.000000000,0.000010205,25.941389084,0.000000000,23.782135010,21.882568359
1766097775.526263,,,,,,,,,,,,,,,,,,,0.000000000,0.000000000,25.934535980,0.000000000,23.837066650,22.893676758,,,,,,,,,,,,
1766097775.531994,,,,,,,0.000000000,-0.000000000,25.913976669,0.000000000,24.256317139,25.427398682,,,,,,,,,,,,,,,,,,,,,,,,
1766097775.533895,,,,,,,,,,,,,0.000000000,0.000000000,25.913976669,0.000000000,24.158752441,22.264739990,,,,,,,,,,,,,,,,,,
1766097775.534512,0.000000000,0.000000000,25.929967880,0.000000000,23.785339355,22.372497559,,,,,,,,,,,,,,,,,,,,,,,,,,,,,,
1766097775.539630,,,,,,,,,,,,,,,,,,,,,,,,,0.000000000,0.000000000,25.907123566,0.000000000,23.678222656,25.118865967,,,,,,
1766097775.540058,,,,,,,,,,,,,,,,,,,,,,,,,,,,,,,0.000000000,0.000000000,25.945957184,0.000000000,23.783294678,21.882568359
1766097775.626320,,,,,,,,,,,,,,,,,,,0.000000000,0.000007177,25.929967880,0.000000000,23.836212158,22.893676758,,,,,,,,,,,,
1766097775.631963,,,,,,,0.000000000,0.000000000,25.939104080,0.000000000,24.260131836,25.424194336,,,,,,,,,,,,,,,,,,,,,,,,
1766097775.633537,0.000000000,0.000000000,25.868289948,0.000000000,23.783691406,22.372497559,,,,,,,,,,,,,,,,,,,,,,,,,,,,,,
1766097775.634898,,,,,,,,,,,,,0.000000000,0.000000000,25.945957184,0.000000000,24.160736084,22.262817383,,,,,,,,,,,,,,,,,,
1766097775.639148,,,,,,,,,,,,,,,,,,,,,,,,,0.000000000,-0.000000000,25.891132355,0.000000000,23.680206299,25.118865967,,,,,,
1766097775.640427,,,,,,,,,,,,,,,,,,,,,,,,,,,,,,,0.000000000,0.000000000,25.929967880,0.000000000,23.783966064,21.882568359
1766097775.726370,,,,,,,,,,,,,,,,,,,0.000000000,0.000000000,25.923114777,0.000000000,23.838928223,22.893676758,,,,,,,,,,,,
1766097775.731500,,,,,,,0.000000000,0.000013226,25.916261673,0.000000000,24.260437012,25.424194336,,,,,,,,,,,,,,,,,,,,,,,,
1766097775.733207,0.000000000,0.000000000,25.893417358,0.000000000,23.784454346,22.372497559,,,,,,,,,,,,,,,,,,,,,,,,,,,,,,
1766097775.735264,,,,,,,,,,,,,0.000000000,0.000000000,25.964233398,0.000000000,24.160278320,22.262817383,,,,,,,,,,,,,,,,,,
1766097775.738618,,,,,,,,,,,,,,,,,,,,,,,,,0.000000000,0.000000000,25.895702362,0.000000000,23.679626465,25.118865967,,,,,,
1766097775.740655,,,,,,,,,,,,,,,,,,,,,,,,,,,,,,,0.000000000,0.000000000,26.005352020,0.000000000,23.783721924,21.882568359
1766097775.831527,,,,,,,0.000000000,0.000000000,25.957380295,0.000000000,24.261444092,25.424194336,,,,,,,,,,,,,,,,,,,,,,,,
1766097775.832786,0.000000000,-0.000000000,25.907123566,0.000000000,23.784301758,22.372497559,,,,,,,,,,,,,,,,,,,,,,,,,,,,,,
1766097775.835136,,,,,,,,,,,,,0.000000000,0.000000000,25.945957184,0.000000000,24.160064697,22.261718750,,,,,,,,,,,,,,,,,,
1766097775.837560,,,,,,,,,,,,,,,,,,,0.000000000,0.000000000,25.911691666,0.000000000,23.840698242,22.893676758,,,,,,,,,,,,
1766097775.842367,,,,,,,,,,,,,,,,,,,,,,,,,0.000000000,0.000000000,25.918544769,0.000000000,23.679718018,25.118865967,,,,,,
1766097775.845676,,,,,,,,,,,,,,,,,,,,,,,,,,,,,,,0.000000000,0.000019486,25.945957184,0.000000000,23.784088135,21.882568359
1766097775.926241,,,,,,,,,,,,,,,,,,,0.000000000,0.000006439,25.927682877,0.000000000,23.839202881,22.893676758,,,,,,,,,,,,
1766097775.933506,0.000000000,0.000021546,25.920829773,0.000000000,23.784057617,22.372497559,,,,,,,,,,,,,,,,,,,,,,,,,,,,,,
1766097775.933921,,,,,,,0.000000000,-0.000000000,25.941389084,0.000000000,24.262969971,25.424194336,,,,,,,,,,,,,,,,,,,,,,,,
1766097775.938368,,,,,,,,,,,,,0.000000000,0.000000000,25.961948395,0.000000000,24.161773682,22.257049561,,,,,,,,,,,,,,,,,,
1766097775.944423,,,,,,,,,,,,,,,,,,,,,,,,,0.000000000,0.000000000,25.911691666,0.000000000,23.681884766,25.118865967,,,,,,
1766097775.946366,,,,,,,,,,,,,,,,,,,,,,,,,,,,,,,0.000000000,0.000042033,25.975654602,0.000000000,23.784088135,21.882568359
1766097776.026196,,,,,,,,,,,,,,,,,,,0.000000000,0.000000000,25.939104080,0.000000000,23.840057373,22.893676758,,,,,,,,,,,,
1766097776.031384,,,,,,,0.000000000,0.000000000,25.909408569,0.000000000,24.263122559,25.424194336,,,,,,,,,,,,,,,,,,,,,,,,
1766097776.032799,0.000000000,-0.000000000,25.904838562,0.000000000,23.784027100,22.372497559,,,,,,,,,,,,,,,,,,,,,,,,,,,,,,
1766097776.035156,,,,,,,,,,,,,0.000000000,0.000000000,25.943674088,0.000000000,24.165283203,22.255706787,,,,,,,,,,,,,,,,,,
1766097776.043658,,,,,,,,,,,,,,,,,,,,,,,,,0.000000000,0.000000000,25.923114777,0.000000000,23.681518555,25.118865967,,,,,,
1766097776.046491,,,,,,,,,,,,,,,,,,,,,,,,,,,,,,,0.000000000,0.000000000,25.943674088,0.000000000,23.784851074,21.882568359
1766097776.126328,,,,,,,,,,,,,,,,,,,0.000000000,0.000000000,25.923114777,0.000000000,23.842620850,22.893676758,,,,,,,,,,,,
1766097776.132457,,,,,,,0.000000000,0.000000000,25.913976669,0.000000000,24.266082764,25.424194336,,,,,,,,,,,,,,,,,,,,,,,,
1766097776.132828,0.000000000,0.000051036,25.927682877,0.000000000,23.786804199,22.372497559,,,,,,,,,,,,,,,,,,,,,,,,,,,,,,
1766097776.135139,,,,,,,,,,,,,0.000000000,0.000000000,25.920829773,0.000000000,24.164276123,22.255706787,,,,,,,,,,,,,,,,,,
1766097776.138537,,,,,,,,,,,,,,,,,,,,,,,,,0.000000000,0.000365861,25.904838562,0.000000000,23.682464600,25.118865967,,,,,,
1766097776.140385,,,,,,,,,,,,,,,,,,,,,,,,,,,,,,,0.000000000,0.000000000,25.964233398,0.000000000,23.784545898,21.882568359
1766097776.226208,,,,,,,,,,,,,,,,,,,0.000000000,0.000000000,25.934535980,0.000000000,23.843902588,22.893676758,,,,,,,,,,,,
1766097776.232402,,,,,,,0.000000000,0.000000000,25.907123566,0.000000000,24.265747070,25.424194336,,,,,,,,,,,,,,,,,,,,,,,,
1766097776.232816,0.000000000,0.000020906,25.927682877,0.000000000,23.787445068,22.372497559,,,,,,,,,,,,,,,,,,,,,,,,,,,,,,
1766097776.235234,,,,,,,,,,,,,0.000000000,0.000300253,25.934535980,0.000000000,24.166839600,22.255706787,,,,,,,,,,,,,,,,,,
1766097776.238537,,,,,,,,,,,,,,,,,,,,,,,,,0.000000000,0.000382799,25.927682877,0.000000000,23.684020996,25.118865967,,,,,,
1766097776.240394,,,,,,,,,,,,,,,,,,,,,,,,,,,,,,,0.000000000,0.000000000,25.959663391,0.000000000,23.787567139,21.882568359
1766097776.331753,,,,,,,0.000000000,0.000145835,25.909408569,0.000000000,24.265594482,25.424194336,,,,,,,,,,,,,,,,,,,,,,,,
1766097776.333014,0.000000000,0.000106446,25.920829773,0.000000000,23.789184570,22.372497559,,,,,,,,,,,,,,,,,,,,,,,,,,,,,,
1766097776.335333,,,,,,,,,,,,,0.000000000,0.000000000,25.920829773,0.000000000,24.166931152,22.258453369,,,,,,,,,,,,,,,,,,
1766097776.336889,,,,,,,,,,,,,,,,,,,0.000000000,0.000098629,25.929967880,0.000000000,23.844573975,22.892944336,,,,,,,,,,,,
1766097776.340840,,,,,,,,,,,,,,,,,,,,,,,,,0.000000000,0.000000000,25.907123566,0.000000000,23.685760498,25.118865967,,,,,,
1766097776.342808,,,,,,,,,,,,,,,,,,,,,,,,,,,,,,,0.000000000,0.000000000,25.955095291,0.000000000,23.786041260,21.882568359
1766097776.431004,,,,,,,0.000000000,0.000000000,25.911691666,0.000000000,24.266082764,25.424194336,,,,,,,,,,,,,,,,,,,,,,,,
1766097776.433239,0.000000000,0.000070766,25.934535980,0.000000000,23.789215088,22.372497559,,,,,,,,,,,,,,,,,,,,,,,,,,,,,,
1766097776.434547,,,,,,,,,,,,,0.000000000,0.000000000,25.941389084,0.000000000,24.166778564,22.267517090,,,,,,,,,,,,,,,,,,
1766097776.439018,,,,,,,,,,,,,,,,,,,0.000000000,0.000000000,25.927682877,0.000000000,23.842803955,22.892944336,,,,,,,,,,,,
1766097776.440308,,,,,,,,,,,,,,,,,,,,,,,,,0.000000000,0.000000000,25.925397873,0.000000000,23.686035156,25.118865967,,,,,,
1766097776.446023,,,,,,,,,,,,,,,,,,,,,,,,,,,,,,,0.000000000,0.000000000,25.957380295,0.000000000,23.787750244,21.882568359
1766097776.531375,,,,,,,0.000000000,0.000000000,25.918544769,0.000000000,24.266418457,25.424194336,,,,,,,,,,,,,,,,,,,,,,,,
1766097776.534194,0.000000000,0.000000000,25.920829773,0.000000000,23.789184570,22.372497559,,,,,,,,,,,,,,,,,,,,,,,,,,,,,,
1766097776.537084,,,,,,,,,,,,,0.000000000,0.000000000,25.934535980,0.000000000,24.167114258,22.269592285,,,,,,,,,,,,,,,,,,
1766097776.537291,,,,,,,,,,,,,,,,,,,0.000000000,0.000000000,25.920829773,0.000000000,23.844055176,22.892944336,,,,,,,,,,,,
1766097776.544513,,,,,,,,,,,,,,,,,,,,,,,,,0.000000000,0.000164192,25.913976669,0.000000000,23.686065674,25.118865967,,,,,,
1766097776.546486,,,,,,,,,,,,,,,,,,,,,,,,,,,,,,,0.000000000,0.000000000,25.948242188,0.000000000,23.789489746,21.882568359
1766097776.631505,,,,,,,0.000000000,0.000000000,25.925397873,0.000000000,24.269012451,25.424194336,,,,,,,,,,,,,,,,,,,,,,,,
1766097776.632991,,,,,,,,,,,,,0.000000000,0.000000000,25.923114777,0.000000000,24.166290283,22.269592285,,,,,,,,,,,,,,,,,,
1766097776.633790,0.000000000,0.000000000,25.934535980,0.000000000,23.790802002,22.372497559,,,,,,,,,,,,,,,,,,,,,,,,,,,,,,
1766097776.634873,,,,,,,,,,,,,,,,,,,0.000000000,0.000005354,25.932250977,0.000000000,23.845672607,22.892944336,,,,,,,,,,,,
1766097776.639388,,,,,,,,,,,,,,,,,,,,,,,,,0.000000000,0.000000000,25.907123566,0.000000000,23.688354492,25.118865967,,,,,,
1766097776.640929,,,,,,,,,,,,,,,,,,,,,,,,,,,,,,,0.000000000,-0.000000000,25.943674088,0.000000000,23.789855957,21.882568359
1766097776.725447,,,,,,,,,,,,,,,,,,,0.000000000,-0.000000000,25.941389084,0.000000000,23.845275879,22.892944336,,,,,,,,,,,,
1766097776.730947,,,,,,,0.000000000,0.000000000,25.934535980,0.000000000,24.269012451,25.424194336,,,,,,,,,,,,,,,,,,,,,,,,
1766097776.732794,,,,,,,,,,,,,0.000000000,0.000000000,25.939104080,0.000000000,24.166870117,22.269592285,,,,,,,,,,,,,,,,,,
1766097776.733328,0.000000000,0.000000000,25.932250977,0.000000000,23.790740967,22.372497559,,,,,,,,,,,,,,,,,,,,,,,,,,,,,,
1766097776.738657,,,,,,,,,,,,,,,,,,,,,,,,,0.000000000,0.000000000,25.920829773,0.000000000,23.686706543,25.118865967,,,,,,
1766097776.739164,,,,,,,,,,,,,,,,,,,,,,,,,,,,,,,0.000000000,0.000000000,25.945957184,0.000000000,23.791687012,21.882568359
1766097776.826439,,,,,,,,,,,,,,,,,,,0.000000000,0.000033267,25.918544769,0.000000000,23.845947266,22.892944336,,,,,,,,,,,,
1766097776.831878,,,,,,,0.000000000,-0.000000000,25.909408569,0.000000000,24.269439697,25.424194336,,,,,,,,,,,,,,,,,,,,,,,,
1766097776.833249,0.000000000,0.000000000,25.943674088,0.000000000,23.791412354,22.367340088,,,,,,,,,,,,,,,,,,,,,,,,,,,,,,
1766097776.833771,,,,,,,,,,,,,0.000000000,0.000000000,25.918544769,0.000000000,24.169128418,22.269592285,,,,,,,,,,,,,,,,,,
1766097776.840711,,,,,,,,,,,,,,,,,,,,,,,,,0.000000000,0.000000000,25.923114777,0.000000000,23.685180664,25.118865967,,,,,,
1766097776.841121,,,,,,,,,,,,,,,,,,,,,,,,,,,,,,,0.000000000,0.000000000,25.945957184,0.000000000,23.793334961,21.882568359
1766097776.925498,,,,,,,,,,,,,,,,,,,0.000000000,0.000000000,25.929967880,0.000000000,23.846527100,22.892944336,,,,,,,,,,,,
1766097776.930509,,,,,,,0.000000000,0.000000000,25.916261673,0.000000000,24.272644043,25.424194336,,,,,,,,,,,,,,,,,,,,,,,,
1766097776.931855,0.000000000,0.000000000,25.932250977,0.000000000,23.791259766,22.365295410,,,,,,,,,,,,,,,,,,,,,,,,,,,,,,
1766097776.934263,,,,,,,,,,,,,0.000000000,0.000043255,25.934535980,0.000000000,24.171783447,22.269287109,,,,,,,,,,,,,,,,,,
1766097776.937707,,,,,,,,,,,,,,,,,,,,,,,,,0.000000000,0.000000000,25.916261673,0.000000000,23.688476563,25.118865967,,,,,,
1766097776.939919,,,,,,,,,,,,,,,,,,,,,,,,,,,,,,,0.000000000,0.000000000,25.966516495,0.000000000,23.792205811,21.882568359
1766097777.030867,,,,,,,0.000000000,0.000149658,25.904838562,0.000000000,24.274871826,25.424194336,,,,,,,,,,,,,,,,,,,,,,,,
1766097777.032174,0.000000000,0.000000000,25.950527191,0.000000000,23.794281006,22.361938477,,,,,,,,,,,,,,,,,,,,,,,,,,,,,,
1766097777.034532,,,,,,,,,,,,,0.000000000,0.000015837,25.934535980,0.000000000,24.172424316,22.268646240,,,,,,,,,,,,,,,,,,
1766097777.036099,,,,,,,,,,,,,,,,,,,0.000000000,0.000000000,25.925397873,0.000000000,23.847686768,22.892944336,,,,,,,,,,,,
1766097777.040880,,,,,,,,,,,,,,,,,,,,,,,,,0.000000000,0.000000000,25.918544769,0.000000000,23.688568115,25.118865967,,,,,,
1766097777.044169,,,,,,,,,,,,,,,,,,,,,,,,,,,,,,,0.000000000,0.000113760,25.955095291,0.000000000,23.791351318,21.882568359
1766097777.125252,,,,,,,,,,,,,,,,,,,0.000000000,0.000000000,25.934535980,0.000000000,23.848114014,22.892944336,,,,,,,,,,,,
1766097777.130955,,,,,,,0.000000000,0.000062159,25.932250977,0.000000000,24.274261475,25.424194336,,,,,,,,,,,,,,,,,,,,,,,,
1766097777.132329,0.000000000,-0.000000000,25.936820984,0.000000000,23.792022705,22.357025146,,,,,,,,,,,,,,,,,,,,,,,,,,,,,,
1766097777.133777,,,,,,,,,,,,,0.000000000,0.000000000,25.936820984,0.000000000,24.173950195,22.268646240,,,,,,,,,,,,,,,,,,
1766097777.141783,,,,,,,,,,,,,,,,,,,,,,,,,0.000000000,0.000000000,25.934535980,0.000000000,23.689025879,25.118865967,,,,,,
1766097777.145635,,,,,,,,,,,,,,,,,,,,,,,,,,,,,,,0.000000000,0.000000000,25.950527191,0.000000000,23.794189453,21.882568359
1766097777.225336,,,,,,,,,,,,,,,,,,,0.000000000,0.000000000,25.936820984,0.000000000,23.851043701,22.892944336,,,,,,,,,,,,
1766097777.231437,,,,,,,0.000000000,0.000000000,25.916261673,0.000000000,24.273742676,25.424194336,,,,,,,,,,,,,,,,,,,,,,,,
1766097777.231831,0.000000000,0.000045197,25.948242188,0.000000000,23.794982910,22.357025146,,,,,,,,,,,,,,,,,,,,,,,,,,,,,,
1766097777.234353,,,,,,,,,,,,,0.000000000,-0.000000000,25.939104080,0.000000000,24.175811768,22.268402100,,,,,,,,,,,,,,,,,,
1766097777.237545,,,,,,,,,,,,,,,,,,,,,,,,,0.000000000,0.000000000,25.923114777,0.000000000,23.685302734,25.118865967,,,,,,
1766097777.239604,,,,,,,,,,,,,,,,,,,,,,,,,,,,,,,0.000000000,0.000000000,25.955095291,0.000000000,23.793365479,21.882568359
1766097777.330832,,,,,,,0.000000000,0.000000000,25.909408569,0.000000000,24.276367188,25.424194336,,,,,,,,,,,,,,,,,,,,,,,,
1766097777.332231,0.000000000,0.000000000,25.932250977,0.000000000,23.798767090,22.357025146,,,,,,,,,,,,,,,,,,,,,,,,,,,,,,
1766097777.333922,,,,,,,,,,,,,,,,,,,0.000000000,0.000000000,25.929967880,0.000000000,23.851562500,22.892944336,,,,,,,,,,,,
1766097777.334406,,,,,,,,,,,,,0.000000000,0.000000000,25.923114777,0.000000000,24.176910400,22.268402100,,,,,,,,,,,,,,,,,,
1766097777.339750,,,,,,,,,,,,,,,,,,,,,,,,,0.000000000,0.000000000,25.923114777,0.000000000,23.686981201,25.127593994,,,,,,
1766097777.340992,,,,,,,,,,,,,,,,,,,,,,,,,,,,,,,0.000000000,0.000000000,25.971086502,0.000000000,23.796051025,21.882568359
1766097777.425552,,,,,,,,,,,,,,,,,,,0.000000000,0.000000000,25.927682877,0.000000000,23.851196289,22.892944336,,,,,,,,,,,,
1766097777.430624,,,,,,,0.000000000,0.000000000,26.000783920,0.000000000,24.276458740,25.424194336,,,,,,,,,,,,,,,,,,,,,,,,
1766097777.432050,0.000000000,0.000171163,25.929967880,0.000000000,23.798095703,22.357421875,,,,,,,,,,,,,,,,,,,,,,,,,,,,,,
1766097777.434289,,,,,,,,,,,,,0.000000000,0.000000000,25.936820984,0.000000000,24.177368164,22.265502930,,,,,,,,,,,,,,,,,,
1766097777.437627,,,,,,,,,,,,,,,,,,,,,,,,,0.000000000,0.000000000,25.941389084,0.000000000,23.691162109,25.131317139,,,,,,
1766097777.439716,,,,,,,,,,,,,,,,,,,,,,,,,,,,,,,0.000000000,0.000000000,25.964233398,0.000000000,23.796539307,21.882568359
1766097777.531032,,,,,,,0.000000000,0.000000000,25.902555466,0.000000000,24.276885986,25.424194336,,,,,,,,,,,,,,,,,,,,,,,,
1766097777.532435,0.000000000,0.000000000,25.932250977,0.000000000,23.796752930,22.373077393,,,,,,,,,,,,,,,,,,,,,,,,,,,,,,
1766097777.533780,,,,,,,,,,,,,0.000000000,0.000000000,25.950527191,0.000000000,24.178100586,22.263519287,,,,,,,,,,,,,,,,,,
1766097777.536244,,,,,,,,,,,,,,,,,,,0.000000000,0.000000000,25.927682877,0.000000000,23.852508545,22.892944336,,,,,,,,,,,,
1766097777.540706,,,,,,,,,,,,,,,,,,,,,,,,,0.000000000,0.000000000,25.939104080,0.000000000,23.694519043,25.131317139,,,,,,
1766097777.543487,,,,,,,,,,,,,,,,,,,,,,,,,,,,,,,0.000000000,0.000050292,25.950527191,0.000000000,23.795043945,21.882568359
1766097777.625653,,,,,,,,,,,,,,,,,,,0.000000000,0.000114807,25.961948395,0.000000000,23.853057861,22.892944336,,,,,,,,,,,,
1766097777.632188,0.000000000,0.000069780,25.927682877,0.000000000,23.796600342,22.380157471,,,,,,,,,,,,,,,,,,,,,,,,,,,,,,
1766097777.633454,,,,,,,0.000000000,0.000000000,25.911691666,0.000000000,24.277282715,25.424194336,,,,,,,,,,,,,,,,,,,,,,,,
1766097777.637925,,,,,,,,,,,,,0.000000000,0.000000000,25.945957184,0.000000000,24.179168701,22.263519287,,,,,,,,,,,,,,,,,,
1766097777.642677,,,,,,,,,,,,,,,,,,,,,,,,,0.000000000,0.000000000,25.936820984,0.000000000,23.692474365,25.119903564,,,,,,
1766097777.645894,,,,,,,,,,,,,,,,,,,,,,,,,,,,,,,0.000000000,0.000003286,25.964233398,0.000000000,23.797271729,21.882568359
1766097777.726313,,,,,,,,,,,,,,,,,,,0.000000000,0.000000000,25.945957184,0.000000000,23.854095459,22.892944336,,,,,,,,,,,,
1766097777.731245,,,,,,,0.000000000,0.000000000,25.877426147,0.000000000,24.276275635,25.422332764,,,,,,,,,,,,,,,,,,,,,,,,
1766097777.732487,0.000000000,0.000000000,25.929967880,0.000000000,23.794616699,22.385406494,,,,,,,,,,,,,,,,,,,,,,,,,,,,,,
1766097777.732980,,,,,,,,,,,,,0.000000000,0.000000000,25.939104080,0.000000000,24.180541992,22.263519287,,,,,,,,,,,,,,,,,,
1766097777.742797,,,,,,,,,,,,,,,,,,,,,,,,,0.000000000,0.000027804,25.923114777,0.000000000,23.690551758,25.117401123,,,,,,
1766097777.745717,,,,,,,,,,,,,,,,,,,,,,,,,,,,,,,0.000000000,0.000000000,25.950527191,0.000000000,23.797851563,21.882568359
1766097777.829874,,,,,,,0.000000000,0.000000000,25.893417358,0.000000000,24.278961182,25.421966553,,,,,,,,,,,,,,,,,,,,,,,,
1766097777.832115,0.000000000,0.000000000,25.907123566,0.000000000,23.792602539,22.390045166,,,,,,,,,,,,,,,,,,,,,,,,,,,,,,
1766097777.833542,,,,,,,,,,,,,0.000000000,0.000000000,25.957380295,0.000000000,24.183349609,22.263519287,,,,,,,,,,,,,,,,,,
1766097777.833982,,,,,,,,,,,,,,,,,,,0.000000000,0.000000000,25.939104080,0.000000000,23.855499268,22.892944336,,,,,,,,,,,,
1766097777.840139,,,,,,,,,,,,,,,,,,,,,,,,,0.000000000,0.000000000,25.918544769,0.000000000,23.695068359,25.117401123,,,,,,
1766097777.840598,,,,,,,,,,,,,,,,,,,,,,,,,,,,,,,0.000000000,0.000000000,25.950527191,0.000000000,23.798156738,21.882568359
1766097777.929769,,,,,,,0.000000000,0.000000000,25.911691666,0.000000000,24.279602051,25.420867920,,,,,,,,,,,,,,,,,,,,,,,,
1766097777.931952,0.000000000,0.000000000,25.948242188,0.000000000,23.793487549,22.390258789,,,,,,,,,,,,,,,,,,,,,,,,,,,,,,
1766097777.932479,,,,,,,,,,,,,0.000000000,0.000018534,25.936820984,0.000000000,24.182525635,22.263519287,,,,,,,,,,,,,,,,,,
1766097777.933836,,,,,,,,,,,,,,,,,,,0.000000000,0.000046107,25.904838562,0.000000000,23.855163574,22.888366699,,,,,,,,,,,,
1766097777.938255,,,,,,,,,,,,,,,,,,,,,,,,,0.000000000,0.000000000,25.907123566,0.000000000,23.692901611,25.117401123,,,,,,
1766097777.939589,,,,,,,,,,,,,,,,,,,,,,,,,,,,,,,0.000000000,0.000000000,25.961948395,0.000000000,23.799713135,21.882568359
1766097778.024565,,,,,,,,,,,,,,,,,,,0.000000000,0.000000000,25.943674088,0.000000000,23.856781006,22.888366699,,,,,,,,,,,,
1766097778.030180,,,,,,,0.000000000,0.000011962,25.904838562,0.000000000,24.280670166,25.420867920,,,,,,,,,,,,,,,,,,,,,,,,
1766097778.031964,,,,,,,,,,,,,0.000000000,0.000000000,25.929967880,0.000000000,24.184020996,22.263519287,,,,,,,,,,,,,,,,,,
1766097778.032386,0.000000000,0.000000392,25.948242188,0.000000000,23.794921875,22.390258789,,,,,,,,,,,,,,,,,,,,,,,,,,,,,,
1766097778.037802,,,,,,,,,,,,,,,,,,,,,,,,,0.000000000,0.000089809,25.909408569,0.000000000,23.691192627,25.117401123,,,,,,
1766097778.038187,,,,,,,,,,,,,,,,,,,,,,,,,,,,,,,0.000000000,0.000000000,25.952810287,0.000000000,23.800476074,21.882568359
1766097778.130350,,,,,,,0.000000000,0.000000000,25.900270462,0.000000000,24.280853271,25.420867920,,,,,,,,,,,,,,,,,,,,,,,,
1766097778.132479,0.000000000,0.000000000,25.932250977,0.000000000,23.795013428,22.390258789,,,,,,,,,,,,,,,,,,,,,,,,,,,,,,
1766097778.132932,,,,,,,,,,,,,0.000000000,0.000016349,25.936820984,0.000000000,24.183776855,22.263519287,,,,,,,,,,,,,,,,,,
1766097778.134406,,,,,,,,,,,,,,,,,,,0.000000000,0.000000000,25.971086502,0.000000000,23.856903076,22.888366699,,,,,,,,,,,,
1766097778.138803,,,,,,,,,,,,,,,,,,,,,,,,,0.000000000,0.000000000,25.881996155,0.000000000,23.700500488,25.119628906,,,,,,
1766097778.140019,,,,,,,,,,,,,,,,,,,,,,,,,,,,,,,0.000000000,0.000000000,25.961948395,0.000000000,23.799682617,21.882568359
1766097778.224469,,,,,,,,,,,,,,,,,,,0.000000000,0.000000000,25.918544769,0.000000000,23.858520508,22.885650635,,,,,,,,,,,,
1766097778.229832,,,,,,,0.000000000,0.000000000,25.911691666,0.000000000,24.281188965,25.420867920,,,,,,,,,,,,,,,,,,,,,,,,
1766097778.231174,0.000000000,0.000009127,25.968801498,0.000000000,23.800262451,22.384735107,,,,,,,,,,,,,,,,,,,,,,,,,,,,,,
1766097778.233540,,,,,,,,,,,,,0.000000000,0.000154075,25.920829773,0.000000000,24.185119629,22.263519287,,,,,,,,,,,,,,,,,,
1766097778.236919,,,,,,,,,,,,,,,,,,,,,,,,,0.000000000,0.000166911,25.895702362,0.000000000,23.696716309,25.114807129,,,,,,
1766097778.244873,,,,,,,,,,,,,,,,,,,,,,,,,,,,,,,0.000000000,0.000000000,25.964233398,0.000000000,23.801788330,21.882568359
1766097778.330605,,,,,,,0.000000000,0.000000000,25.884279251,0.000000000,24.284332275,25.418762207,,,,,,,,,,,,,,,,,,,,,,,,
1766097778.330977,0.000000000,0.000000000,25.968801498,0.000000000,23.797760010,22.381561279,,,,,,,,,,,,,,,,,,,,,,,,,,,,,,
1766097778.332869,,,,,,,,,,,,,,,,,,,0.000000000,0.000000000,25.939104080,0.000000000,23.857788086,22.885650635,,,,,,,,,,,,
1766097778.333323,,,,,,,,,,,,,0.000000000,0.000000000,25.913976669,0.000000000,24.185668945,22.263519287,,,,,,,,,,,,,,,,,,
1766097778.339588,,,,,,,,,,,,,,,,,,,,,,,,,0.000000000,0.000081523,25.888849258,0.000000000,23.697143555,25.111877441,,,,,,
1766097778.340052,,,,,,,,,,,,,,,,,,,,,,,,,,,,,,,0.000000000,0.000085367,25.961948395,0.000000000,23.803497314,21.882568359
1766097778.424504,,,,,,,,,,,,,,,,,,,0.000000000,0.000000000,25.934535980,0.000000000,23.858398438,22.885650635,,,,,,,,,,,,
1766097778.430634,,,,,,,0.000000000,0.000000000,25.929967880,0.000000000,24.286682129,25.417663574,,,,,,,,,,,,,,,,,,,,,,,,
1766097778.431003,0.000000000,0.000000000,25.950527191,0.000000000,23.798828125,22.379425049,,,,,,,,,,,,,,,,,,,,,,,,,,,,,,
1766097778.433408,,,,,,,,,,,,,0.000000000,0.000045550,25.932250977,0.000000000,24.187377930,22.263519287,,,,,,,,,,,,,,,,,,
1766097778.436746,,,,,,,,,,,,,,,,,,,,,,,,,0.000000000,0.000000000,25.904838562,0.000000000,23.696411133,25.111877441,,,,,,
1766097778.438668,,,,,,,,,,,,,,,,,,,,,,,,,,,,,,,0.000000000,0.000000000,25.959663391,0.000000000,23.803558350,21.882568359
1766097778.524714,,,,,,,,,,,,,,,,,,,0.000000000,0.000000000,25.964233398,0.000000000,23.859313965,22.885650635,,,,,,,,,,,,
1766097778.529741,,,,,,,0.000000000,0.000000000,25.904838562,0.000000000,24.286071777,25.417663574,,,,,,,,,,,,,,,,,,,,,,,,
1766097778.531139,0.000000000,0.000000000,25.941389084,0.000000000,23.798736572,22.375488281,,,,,,,,,,,,,,,,,,,,,,,,,,,,,,
1766097778.533489,,,,,,,,,,,,,0.000000000,0.000143491,25.950527191,0.000000000,24.186950684,22.263519287,,,,,,,,,,,,,,,,,,
1766097778.536893,,,,,,,,,,,,,,,,,,,,,,,,,0.000000000,0.000000000,25.916261673,0.000000000,23.697998047,25.111877441,,,,,,
1766097778.538971,,,,,,,,,,,,,,,,,,,,,,,,,,,,,,,0.000000000,0.000000000,25.977939606,0.000000000,23.803710938,21.882568359
1766097778.624404,,,,,,,,,,,,,,,,,,,0.000000000,0.000000000,25.918544769,0.000000000,23.862213135,22.885650635,,,,,,,,,,,,
1766097778.630209,,,,,,,0.000000000,0.000000000,25.955095291,0.000000000,24.286407471,25.417663574,,,,,,,,,,,,,,,,,,,,,,,,
1766097778.631499,0.000000000,0.000000000,25.939104080,0.000000000,23.800659180,22.368591309,,,,,,,,,,,,,,,,,,,,,,,,,,,,,,
1766097778.632937,,,,,,,,,,,,,0.000000000,0.000000000,25.934535980,0.000000000,24.189971924,22.263519287,,,,,,,,,,,,,,,,,,
1766097778.637323,,,,,,,,,,,,,,,,,,,,,,,,,0.000000000,0.000150100,25.913976669,0.000000000,23.699249268,25.111877441,,,,,,
1766097778.638784,,,,,,,,,,,,,,,,,,,,,,,,,,,,,,,0.000000000,0.000027295,25.975654602,0.000000000,23.806671143,21.882568359
1766097778.730221,,,,,,,0.000000000,0.000146468,25.934535980,0.000000000,24.285125732,25.417663574,,,,,,,,,,,,,,,,,,,,,,,,
1766097778.731323,0.000000000,0.000000000,25.927682877,0.000000000,23.803955078,22.365478516,,,,,,,,,,,,,,,,,,,,,,,,,,,,,,
1766097778.733741,,,,,,,,,,,,,0.000000000,0.000000000,25.927682877,0.000000000,24.190155029,22.263519287,,,,,,,,,,,,,,,,,,
1766097778.736434,,,,,,,,,,,,,,,,,,,0.000000000,0.000000000,25.923114777,0.000000000,23.862091064,22.885650635,,,,,,,,,,,,
1766097778.741676,,,,,,,,,,,,,,,,,,,,,,,,,0.000000000,0.000027222,25.913976669,0.000000000,23.700134277,25.111877441,,,,,,
1766097778.744287,,,,,,,,,,,,,,,,,,,,,,,,,,,,,,,0.000000000,0.000000000,25.964233398,0.000000000,23.805358887,21.882568359
1766097778.830817,,,,,,,0.000000000,0.000000000,25.923114777,0.000000000,24.285583496,25.417663574,,,,,,,,,,,,,,,,,,,,,,,,
1766097778.831210,0.000000000,0.000000000,25.927682877,0.000000000,23.805236816,22.365478516,,,,,,,,,,,,,,,,,,,,,,,,,,,,,,
1766097778.835048,,,,,,,,,,,,,,,,,,,0.000000000,0.000021053,25.923114777,0.000000000,23.862915039,22.885650635,,,,,,,,,,,,
1766097778.835422,,,,,,,,,,,,,0.000000000,0.000000000,25.909408569,0.000000000,24.191497803,22.263519287,,,,,,,,,,,,,,,,,,
1766097778.840812,,,,,,,,,,,,,,,,,,,,,,,,,0.000000000,0.000000000,25.925397873,0.000000000,23.699798584,25.111877441,,,,,,
1766097778.846104,,,,,,,,,,,,,,,,,,,,,,,,,,,,,,,0.000000000,0.000000000,25.984792709,0.000000000,23.805694580,21.882568359
1766097778.924674,,,,,,,,,,,,,,,,,,,0.000000000,0.000000000,25.929967880,0.000000000,23.864562988,22.885650635,,,,,,,,,,,,
1766097778.930759,,,,,,,0.000000000,0.000000000,25.913976669,0.000000000,24.289245605,25.417663574,,,,,,,,,,,,,,,,,,,,,,,,
1766097778.931359,0.000000000,0.000000000,25.936820984,0.000000000,23.801788330,22.376617432,,,,,,,,,,,,,,,,,,,,,,,,,,,,,,
1766097778.933689,,,,,,,,,,,,,0.000000000,0.000099569,25.913976669,0.000000000,24.191040039,22.263519287,,,,,,,,,,,,,,,,,,
1766097778.936877,,,,,,,,,,,,,,,,,,,,,,,,,0.000000000,0.000008194,25.916261673,0.000000000,23.700897217,25.111877441,,,,,,
1766097778.938720,,,,,,,,,,,,,,,,,,,,,,,,,,,,,,,0.000000000,0.000000000,25.989360809,0.000000000,23.807373047,21.882568359
1766097779.025430,,,,,,,,,,,,,,,,,,,0.000000000,0.000000000,25.925397873,0.000000000,23.863616943,22.885650635,,,,,,,,,,,,
1766097779.030395,,,,,,,0.000000000,0.000046637,25.925397873,0.000000000,24.289306641,25.417663574,,,,,,,,,,,,,,,,,,,,,,,,
1766097779.031888,0.000000000,0.000000000,25.948242188,0.000000000,23.802581787,22.381042480,,,,,,,,,,,,,,,,,,,,,,,,,,,,,,
1766097779.032190,,,,,,,,,,,,,0.000000000,0.000017521,25.916261673,0.000000000,24.192810059,22.263519287,,,,,,,,,,,,,,,,,,
1766097779.037993,,,,,,,,,,,,,,,,,,,,,,,,,0.000000000,0.000124591,25.936820984,0.000000000,23.701995850,25.111877441,,,,,,
1766097779.038361,,,,,,,,,,,,,,,,,,,,,,,,,,,,,,,0.000000000,0.000000000,25.998498917,0.000000000,23.806976318,21.882568359
1766097779.129352,,,,,,,0.000000000,0.000000000,25.918544769,0.000000000,24.290374756,25.417663574,,,,,,,,,,,,,,,,,,,,,,,,
1766097779.131125,,,,,,,,,,,,,0.000000000,0.000000000,25.904838562,0.000000000,24.195098877,22.263519287,,,,,,,,,,,,,,,,,,
1766097779.131596,0.000000000,0.000000000,25.943674088,0.000000000,23.802856445,22.381042480,,,,,,,,,,,,,,,,,,,,,,,,,,,,,,
1766097779.136024,,,,,,,,,,,,,,,,,,,0.000000000,0.000000000,25.911691666,0.000000000,23.865234375,22.885650635,,,,,,,,,,,,
1766097779.140235,,,,,,,,,,,,,,,,,,,,,,,,,0.000000000,0.000000000,25.918544769,0.000000000,23.701904297,25.111877441,,,,,,
1766097779.144211,,,,,,,,,,,,,,,,,,,,,,,,,,,,,,,0.000000000,0.000000000,25.977939606,0.000000000,23.805847168,21.882568359
1766097779.229347,,,,,,,0.000000000,0.000000000,25.900270462,0.000000000,24.292633057,25.417663574,,,,,,,,,,,,,,,,,,,,,,,,
1766097779.231055,,,,,,,,,,,,,0.000000000,0.000000000,25.916261673,0.000000000,24.196319580,22.263519287,,,,,,,,,,,,,,,,,,
1766097779.231551,0.000000000,0.000000000,25.934535980,0.000000000,23.804748535,22.381042480,,,,,,,,,,,,,,,,,,,,,,,,,,,,,,
1766097779.232931,,,,,,,,,,,,,,,,,,,0.000000000,0.000016108,25.918544769,0.000000000,23.865814209,22.885650635,,,,,,,,,,,,
1766097779.242441,,,,,,,,,,,,,,,,,,,,,,,,,0.000000000,0.000000000,25.918544769,0.000000000,23.703308105,25.111877441,,,,,,
1766097779.245055,,,,,,,,,,,,,,,,,,,,,,,,,,,,,,,0.000000000,0.000000000,25.964233398,0.000000000,23.806488037,21.882568359
1766097779.324512,,,,,,,,,,,,,,,,,,,0.000000000,0.000000000,25.934535980,0.000000000,23.866943359,22.885650635,,,,,,,,,,,,
1766097779.330450,,,,,,,0.000000000,0.000022631,25.909408569,0.000000000,24.290802002,25.417663574,,,,,,,,,,,,,,,,,,,,,,,,
1766097779.331738,0.000000000,0.000020549,25.939104080,0.000000000,23.806091309,22.381042480,,,,,,,,,,,,,,,,,,,,,,,,,,,,,,
1766097779.332211,,,,,,,,,,,,,0.000000000,0.000000000,25.900270462,0.000000000,24.195129395,22.263519287,,,,,,,,,,,,,,,,,,
1766097779.339005,,,,,,,,,,,,,,,,,,,,,,,,,0.000000000,0.000000000,25.913976669,0.000000000,23.703491211,25.111877441,,,,,,
1766097779.339386,,,,,,,,,,,,,,,,,,,,,,,,,,,,,,,0.000000000,0.000000000,25.939104080,0.000000000,23.808258057,21.882568359
1766097779.423682,,,,,,,,,,,,,,,,,,,0.000000000,0.000035504,25.911691666,0.000000000,23.866210938,22.885650635,,,,,,,,,,,,
1766097779.429338,,,,,,,0.000000000,-0.000000000,25.913976669,0.000000000,24.293945313,25.417663574,,,,,,,,,,,,,,,,,,,,,,,,
1766097779.431251,,,,,,,,,,,,,0.000000000,0.000126639,25.923114777,0.000000000,24.196228027,22.263519287,,,,,,,,,,,,,,,,,,
1766097779.431817,0.000000000,0.000000000,25.941389084,0.000000000,23.804870605,22.381011963,,,,,,,,,,,,,,,,,,,,,,,,,,,,,,
1766097779.436906,,,,,,,,,,,,,,,,,,,,,,,,,0.000000000,0.000000000,25.927682877,0.000000000,23.703369141,25.111877441,,,,,,
1766097779.437376,,,,,,,,,,,,,,,,,,,,,,,,,,,,,,,0.000000000,0.000026119,25.929967880,0.000000000,23.811157227,21.882568359
1766097779.523472,,,,,,,,,,,,,,,,,,,0.000000000,0.000157465,25.902555466,0.000000000,23.866943359,22.885650635,,,,,,,,,,,,
1766097779.529169,,,,,,,0.000000000,0.000000000,25.911691666,0.000000000,24.293579102,25.417663574,,,,,,,,,,,,,,,,,,,,,,,,
1766097779.530595,0.000000000,0.000043255,25.934535980,0.000000000,23.805480957,22.379272461,,,,,,,,,,,,,,,,,,,,,,,,,,,,,,
1766097779.532008,,,,,,,,,,,,,0.000000000,0.000000000,25.925397873,0.000000000,24.198913574,22.263519287,,,,,,,,,,,,,,,,,,
1766097779.536465,,,,,,,,,,,,,,,,,,,,,,,,,0.000000000,0.000000000,25.920829773,0.000000000,23.705993652,25.111877441,,,,,,
1766097779.537759,,,,,,,,,,,,,,,,,,,,,,,,,,,,,,,0.000000000,0.000000000,25.991645813,0.000000000,23.809936523,21.882568359
1766097779.629748,,,,,,,0.000000000,0.000000000,25.918544769,0.000000000,24.294067383,25.417663574,,,,,,,,,,,,,,,,,,,,,,,,
1766097779.630113,0.000000000,-0.000000000,25.945957184,0.000000000,23.805877686,22.378875732,,,,,,,,,,,,,,,,,,,,,,,,,,,,,,
1766097779.632471,,,,,,,,,,,,,0.000000000,0.000000000,25.950527191,0.000000000,24.200958252,22.263519287,,,,,,,,,,,,,,,,,,
1766097779.632997,,,,,,,,,,,,,,,,,,,0.000000000,0.000000000,25.895702362,0.000000000,23.866729736,22.885650635,,,,,,,,,,,,
1766097779.639366,,,,,,,,,,,,,,,,,,,,,,,,,0.000000000,0.000000000,25.927682877,0.000000000,23.706085205,25.111877441,,,,,,
1766097779.640837,,,,,,,,,,,,,,,,,,,,,,,,,,,,,,,0.000000000,0.000000000,25.991645813,0.000000000,23.812469482,21.882568359
1766097779.723608,,,,,,,,,,,,,,,,,,,0.000000000,0.000000000,25.911691666,0.000000000,23.866607666,22.885650635,,,,,,,,,,,,
1766097779.729877,,,,,,,0.000000000,0.000097762,25.925397873,0.000000000,24.297210693,25.417663574,,,,,,,,,,,,,,,,,,,,,,,,
1766097779.730100,0.000000000,0.000000000,25.945957184,0.000000000,23.806030273,22.376190186,,,,,,,,,,,,,,,,,,,,,,,,,,,,,,
1766097779.732764,,,,,,,,,,,,,0.000000000,0.000000000,25.923114777,0.000000000,24.199401855,22.263519287,,,,,,,,,,,,,,,,,,
1766097779.739957,,,,,,,,,,,,,,,,,,,,,,,,,0.000000000,0.000096052,25.923114777,0.000000000,23.706787109,25.111877441,,,,,,
1766097779.743760,,,,,,,,,,,,,,,,,,,,,,,,,,,,,,,0.000000000,0.000000000,25.975654602,0.000000000,23.812408447,21.882568359
1766097779.828883,,,,,,,0.000000000,0.000000000,25.927682877,0.000000000,24.295776367,25.417663574,,,,,,,,,,,,,,,,,,,,,,,,
1766097779.830205,0.000000000,0.000000000,25.941389084,0.000000000,23.805969238,22.376190186,,,,,,,,,,,,,,,,,,,,,,,,,,,,,,
1766097779.832555,,,,,,,,,,,,,0.000000000,0.000000000,25.904838562,0.000000000,24.199127197,22.263519287,,,,,,,,,,,,,,,,,,
1766097779.833078,,,,,,,,,,,,,,,,,,,0.000000000,-0.000000000,25.902555466,0.000000000,23.868743896,22.885650635,,,,,,,,,,,,
1766097779.838614,,,,,,,,,,,,,,,,,,,,,,,,,0.000000000,0.000014936,25.939104080,0.000000000,23.705169678,25.111877441,,,,,,
1766097779.839827,,,,,,,,,,,,,,,,,,,,,,,,,,,,,,,0.000000000,0.000022375,26.003067017,0.000000000,23.812011719,21.882568359
1766097779.923619,,,,,,,,,,,,,,,,,,,0.000000000,0.000076212,25.872858047,0.000000000,23.869415283,22.885650635,,,,,,,,,,,,
1766097779.929909,,,,,,,0.000000000,0.000122408,25.918544769,0.000000000,24.296630859,25.417663574,,,,,,,,,,,,,,,,,,,,,,,,
1766097779.930110,0.000000000,0.000000000,25.909408569,0.000000000,23.806976318,22.376190186,,,,,,,,,,,,,,,,,,,,,,,,,,,,,,
1766097779.932625,,,,,,,,,,,,,0.000000000,0.000000000,25.939104080,0.000000000,24.200897217,22.263519287,,,,,,,,,,,,,,,,,,
1766097779.935965,,,,,,,,,,,,,,,,,,,,,,,,,0.000000000,0.000095689,25.932250977,0.000000000,23.706237793,25.111877441,,,,,,
1766097779.937862,,,,,,,,,,,,,,,,,,,,,,,,,,,,,,,0.000000000,0.000000000,25.984792709,0.000000000,23.812011719,21.882568359
1766097780.023790,,,,,,,,,,,,,,,,,,,0.000000000,0.000000000,25.918544769,0.000000000,23.869384766,22.885650635,,,,,,,,,,,,
1766097780.028812,,,,,,,0.000000000,0.000000000,25.877426147,0.000000000,24.298217773,25.417663574,,,,,,,,,,,,,,,,,,,,,,,,
1766097780.030246,0.000000000,0.000000000,25.936820984,0.000000000,23.807312012,22.376190186,,,,,,,,,,,,,,,,,,,,,,,,,,,,,,
1766097780.032643,,,,,,,,,,,,,0.000000000,0.000000000,25.907123566,0.000000000,24.203155518,22.263519287,,,,,,,,,,,,,,,,,,
1766097780.036097,,,,,,,,,,,,,,,,,,,,,,,,,0.000000000,0.000000000,25.948242188,0.000000000,23.707946777,25.111877441,,,,,,
1766097780.037914,,,,,,,,,,,,,,,,,,,,,,,,,,,,,,,0.000000000,0.000000000,26.053323746,0.000000000,23.813049316,21.882568359
1766097780.123784,,,,,,,,,,,,,,,,,,,0.000000000,-0.000000000,26.544464111,0.000000000,23.873138428,22.885650635,,,,,,,,,,,,
1766097780.129771,,,,,,,0.000000000,0.000000000,26.521621704,0.000000000,24.299255371,25.417663574,,,,,,,,,,,,,,,,,,,,,,,,
1766097780.130231,0.000000000,0.000000000,26.565023422,0.000000000,23.808593750,22.376159668,,,,,,,,,,,,,,,,,,,,,,,,,,,,,,
1766097780.135563,,,,,,,,,,,,,0.000000000,-0.000000000,26.537611008,0.000000000,24.202575684,22.263519287,,,,,,,,,,,,,,,,,,
1766097780.139079,,,,,,,,,,,,,,,,,,,,,,,,,0.000000000,0.000000000,26.555887222,0.000000000,23.707977295,25.111877441,,,,,,
1766097780.143762,,,,,,,,,,,,,,,,,,,,,,,,,,,,,,,0.000000000,0.000021813,26.660968781,0.000000000,23.813568115,21.882568359
1766097780.223626,,,,,,,,,,,,,,,,,,,0.000000000,0.000056338,25.998498917,0.000000000,23.870483398,22.885650635,,,,,,,,,,,,
1766097780.229773,,,,,,,0.000000000,0.000000000,25.945957184,0.000000000,24.300567627,25.417663574,,,,,,,,,,,,,,,,,,,,,,,,
1766097780.230270,0.000000000,0.000049707,26.000783920,0.000000000,23.810882568,22.374114990,,,,,,,,,,,,,,,,,,,,,,,,,,,,,,
1766097780.232684,,,,,,,,,,,,,0.000000000,0.000000000,25.991645813,0.000000000,24.205780029,22.263519287,,,,,,,,,,,,,,,,,,
1766097780.235873,,,,,,,,,,,,,,,,,,,,,,,,,0.000000000,0.000000000,26.003067017,0.000000000,23.708618164,25.111877441,,,,,,
1766097780.238276,,,,,,,,,,,,,,,,,,,,,,,,,,,,,,,0.000000000,0.000000000,26.032764435,0.000000000,23.815368652,21.882568359
1766097780.330153,,,,,,,0.000000000,0.000000000,25.888849258,0.000000000,24.299926758,25.417663574,,,,,,,,,,,,,,,,,,,,,,,,
1766097780.330321,0.000000000,0.000116043,25.925397873,0.000000000,23.809448242,22.373352051,,,,,,,,,,,,,,,,,,,,,,,,,,,,,,
1766097780.332211,,,,,,,,,,,,,,,,,,,0.000000000,0.000000000,25.920829773,0.000000000,23.872222900,22.885650635,,,,,,,,,,,,
1766097780.332648,,,,,,,,,,,,,0.000000000,0.000000000,25.932250977,0.000000000,24.204711914,22.263519287,,,,,,,,,,,,,,,,,,
1766097780.338076,,,,,,,,,,,,,,,,,,,,,,,,,0.000000000,0.000000000,25.941389084,0.000000000,23.709320068,25.111877441,,,,,,
1766097780.339511,,,,,,,,,,,,,,,,,,,,,,,,,,,,,,,0.000000000,0.000000000,26.009920120,0.000000000,23.814361572,21.882568359
1766097780.423936,,,,,,,,,,,,,,,,,,,0.000000000,0.000000000,25.913976669,0.000000000,23.873382568,22.885650635,,,,,,,,,,,,
1766097780.428949,,,,,,,0.000000000,0.000000000,25.920829773,0.000000000,24.302978516,25.417663574,,,,,,,,,,,,,,,,,,,,,,,,
1766097780.431090,0.000000000,0.000000000,25.927682877,0.000000000,23.811553955,22.372741699,,,,,,,,,,,,,,,,,,,,,,,,,,,,,,
1766097780.431460,,,,,,,,,,,,,0.000000000,0.000000000,25.907123566,0.000000000,24.206359863,22.263519287,,,,,,,,,,,,,,,,,,
1766097780.437528,,,,,,,,,,,,,,,,,,,,,,,,,0.000000000,0.000000000,25.952810287,0.000000000,23.709442139,25.111877441,,,,,,
1766097780.437666,,,,,,,,,,,,,,,,,,,,,,,,,,,,,,,0.000000000,0.000026354,25.961948395,0.000000000,23.817657471,21.882568359
1766097780.528557,,,,,,,0.000000000,0.000000000,25.918544769,0.000000000,24.303924561,25.417663574,,,,,,,,,,,,,,,,,,,,,,,,
1766097780.530949,0.000000000,0.000047129,25.925397873,0.000000000,23.812438965,22.372497559,,,,,,,,,,,,,,,,,,,,,,,,,,,,,,
1766097780.531320,,,,,,,,,,,,,0.000000000,0.000063371,25.925397873,0.000000000,24.206329346,22.263519287,,,,,,,,,,,,,,,,,,
1766097780.532732,,,,,,,,,,,,,,,,,,,0.000000000,0.000000000,25.904838562,0.000000000,23.873046875,22.885650635,,,,,,,,,,,,
1766097780.536980,,,,,,,,,,,,,,,,,,,,,,,,,0.000000000,0.000000000,25.916261673,0.000000000,23.710540771,25.111877441,,,,,,
1766097780.538406,,,,,,,,,,,,,,,,,,,,,,,,,,,,,,,0.000000000,0.000171889,25.977939606,0.000000000,23.815917969,21.882568359
1766097780.622643,,,,,,,,,,,,,,,,,,,0.000000000,0.000020784,25.891132355,0.000000000,23.872924805,22.885650635,,,,,,,,,,,,
1766097780.631055,0.000000000,0.000000000,25.950527191,0.000000000,23.811004639,22.372497559,,,,,,,,,,,,,,,,,,,,,,,,,,,,,,
1766097780.632426,,,,,,,0.000000000,0.000150721,25.907123566,0.000000000,24.302337646,25.417663574,,,,,,,,,,,,,,,,,,,,,,,,
1766097780.633814,,,,,,,,,,,,,0.000000000,0.000000000,25.913976669,0.000000000,24.208099365,22.263519287,,,,,,,,,,,,,,,,,,
1766097780.639367,,,,,,,,,,,,,,,,,,,,,,,,,0.000000000,0.000206681,25.925397873,0.000000000,23.713043213,25.111877441,,,,,,
1766097780.643421,,,,,,,,,,,,,,,,,,,,,,,,,,,,,,,0.000000000,0.000018803,25.984792709,0.000000000,23.818878174,21.882568359
1766097780.722770,,,,,,,,,,,,,,,,,,,0.000000000,0.000000000,25.895702362,0.000000000,23.875854492,22.885650635,,,,,,,,,,,,
1766097780.728511,,,,,,,0.000000000,0.000016219,25.920829773,0.000000000,24.305175781,25.417663574,,,,,,,,,,,,,,,,,,,,,,,,
1766097780.730078,0.000000000,0.000000000,25.943674088,0.000000000,23.813842773,22.372497559,,,,,,,,,,,,,,,,,,,,,,,,,,,,,,
1766097780.732221,,,,,,,,,,,,,0.000000000,0.000000000,25.920829773,0.000000000,24.210083008,22.263519287,,,,,,,,,,,,,,,,,,
1766097780.735757,,,,,,,,,,,,,,,,,,,,,,,,,0.000000000,0.000067508,25.936820984,0.000000000,23.712432861,25.111877441,,,,,,
1766097780.743413,,,,,,,,,,,,,,,,,,,,,,,,,,,,,,,0.000000000,0.000000000,25.936820984,0.000000000,23.818328857,21.882568359
1766097780.823107,,,,,,,,,,,,,,,,,,,0.000000000,0.000009389,25.929967880,0.000000000,23.874877930,22.885650635,,,,,,,,,,,,
1766097780.828926,,,,,,,0.000000000,0.000000000,25.923114777,0.000000000,24.308044434,25.416961670,,,,,,,,,,,,,,,,,,,,,,,,
1766097780.829265,0.000000000,0.000000000,26.005352020,0.000000000,23.813598633,22.372467041,,,,,,,,,,,,,,,,,,,,,,,,,,,,,,
1766097780.832607,,,,,,,,,,,,,0.000000000,-0.000000000,25.913976669,0.000000000,24.211639404,22.263519287,,,,,,,,,,,,,,,,,,
1766097780.836851,,,,,,,,,,,,,,,,,,,,,,,,,0.000000000,0.000416096,25.936820984,0.000000000,23.711578369,25.111877441,,,,,,
1766097780.838805,,,,,,,,,,,,,,,,,,,,,,,,,,,,,,,0.000000000,0.000000000,25.961948395,0.000000000,23.818664551,21.882568359
1766097780.922638,,,,,,,,,,,,,,,,,,,0.000000000,0.000000000,25.941389084,0.000000000,23.877105713,22.885650635,,,,,,,,,,,,
1766097780.928304,,,,,,,0.000000000,0.000000000,25.909408569,0.000000000,24.308319092,25.416839600,,,,,,,,,,,,,,,,,,,,,,,,
1766097780.929647,0.000000000,0.000000000,25.897985458,0.000000000,23.814910889,22.372070313,,,,,,,,,,,,,,,,,,,,,,,,,,,,,,
1766097780.931995,,,,,,,,,,,,,0.000000000,0.000006112,25.939104080,0.000000000,24.211456299,22.263519287,,,,,,,,,,,,,,,,,,
1766097780.935394,,,,,,,,,,,,,,,,,,,,,,,,,0.000000000,0.000000000,25.936820984,0.000000000,23.713043213,25.111877441,,,,,,
1766097780.937284,,,,,,,,,,,,,,,,,,,,,,,,,,,,,,,0.000000000,0.000000000,25.961948395,0.000000000,23.819396973,21.882568359
1766097781.022758,,,,,,,,,,,,,,,,,,,0.000000000,0.000000000,25.923114777,0.000000000,23.878234863,22.885650635,,,,,,,,,,,,
1766097781.028270,,,,,,,0.000000000,0.000000000,25.925397873,0.000000000,24.307556152,25.416839600,,,,,,,,,,,,,,,,,,,,,,,,
1766097781.029724,0.000000000,0.000000000,25.913976669,0.000000000,23.816741943,22.372039795,,,,,,,,,,,,,,,,,,,,,,,,,,,,,,
1766097781.032048,,,,,,,,,,,,,0.000000000,0.000000000,25.934535980,0.000000000,24.212493896,22.263519287,,,,,,,,,,,,,,,,,,
1766097781.035451,,,,,,,,,,,,,,,,,,,,,,,,,0.000000000,0.000034366,25.957380295,0.000000000,23.712890625,25.111877441,,,,,,
1766097781.037465,,,,,,,,,,,,,,,,,,,,,,,,,,,,,,,0.000000000,0.000000000,25.948242188,0.000000000,23.820220947,21.882568359
1766097781.122840,,,,,,,,,,,,,,,,,,,0.000000000,0.000000000,25.916261673,0.000000000,23.877349854,22.885650635,,,,,,,,,,,,
1766097781.128479,,,,,,,0.000000000,0.000000000,25.911691666,0.000000000,24.307312012,25.416839600,,,,,,,,,,,,,,,,,,,,,,,,
1766097781.129837,0.000000000,0.000000000,25.920829773,0.000000000,23.814422607,22.372039795,,,,,,,,,,,,,,,,,,,,,,,,,,,,,,
1766097781.135655,,,,,,,,,,,,,0.000000000,0.000000000,25.927682877,0.000000000,24.212249756,22.263519287,,,,,,,,,,,,,,,,,,
1766097781.139981,,,,,,,,,,,,,,,,,,,,,,,,,0.000000000,0.000168211,25.941389084,0.000000000,23.716705322,25.111877441,,,,,,
1766097781.143505,,,,,,,,,,,,,,,,,,,,,,,,,,,,,,,0.000000000,0.000000000,25.973369598,0.000000000,23.822418213,21.882568359
1766097781.222837,,,,,,,,,,,,,,,,,,,0.000000000,0.000000000,25.932250977,0.000000000,23.879547119,22.885650635,,,,,,,,,,,,
1766097781.228377,,,,,,,0.000000000,0.000000000,25.907123566,0.000000000,24.308685303,25.416839600,,,,,,,,,,,,,,,,,,,,,,,,
1766097781.229797,0.000000000,0.000056223,25.987075806,0.000000000,23.813201904,22.372039795,,,,,,,,,,,,,,,,,,,,,,,,,,,,,,
1766097781.232076,,,,,,,,,,,,,0.000000000,-0.000000000,25.929967880,0.000000000,24.215087891,22.263519287,,,,,,,,,,,,,,,,,,
1766097781.235421,,,,,,,,,,,,,,,,,,,,,,,,,0.000000000,0.000000000,25.939104080,0.000000000,23.714172363,25.111877441,,,,,,
1766097781.237417,,,,,,,,,,,,,,,,,,,,,,,,,,,,,,,0.000000000,0.000000000,25.977939606,0.000000000,23.820465088,21.882568359
1766097781.323207,,,,,,,,,,,,,,,,,,,0.000000000,0.000000000,25.916261673,0.000000000,23.878356934,22.885650635,,,,,,,,,,,,
1766097781.328868,,,,,,,0.000000000,0.000019304,25.916261673,0.000000000,24.309143066,25.416839600,,,,,,,,,,,,,,,,,,,,,,,,
1766097781.329273,0.000000000,0.000000000,25.893417358,0.000000000,23.816772461,22.372039795,,,,,,,,,,,,,,,,,,,,,,,,,,,,,,
1766097781.332668,,,,,,,,,,,,,0.000000000,0.000036632,25.925397873,0.000000000,24.215393066,22.263519287,,,,,,,,,,,,,,,,,,
1766097781.336303,,,,,,,,,,,,,,,,,,,,,,,,,0.000000000,0.000000000,25.907123566,0.000000000,23.716003418,25.111877441,,,,,,
1766097781.338392,,,,,,,,,,,,,,,,,,,,,,,,,,,,,,,0.000000000,0.000000000,25.977939606,0.000000000,23.822357178,21.882568359
1766097781.422714,,,,,,,,,,,,,,,,,,,0.000000000,0.000018758,25.929967880,0.000000000,23.879913330,22.885650635,,,,,,,,,,,,
1766097781.428317,,,,,,,0.000000000,0.000055290,25.913976669,0.000000000,24.311584473,25.416839600,,,,,,,,,,,,,,,,,,,,,,,,
1766097781.429760,0.000000000,0.000063143,25.900270462,0.000000000,23.816986084,22.372039795,,,,,,,,,,,,,,,,,,,,,,,,,,,,,,
1766097781.432040,,,,,,,,,,,,,0.000000000,0.000000000,25.943674088,0.000000000,24.217559814,22.263519287,,,,,,,,,,,,,,,,,,
1766097781.435460,,,,,,,,,,,,,,,,,,,,,,,,,0.000000000,0.000086873,25.923114777,0.000000000,23.717437744,25.111877441,,,,,,
1766097781.437338,,,,,,,,,,,,,,,,,,,,,,,,,,,,,,,0.000000000,0.000000000,25.980222702,0.000000000,23.822875977,21.882568359
1766097781.522902,,,,,,,,,,,,,,,,,,,0.000000000,0.000000000,25.927682877,0.000000000,23.882629395,22.885650635,,,,,,,,,,,,
1766097781.528911,,,,,,,0.000000000,0.000000000,25.925397873,0.000000000,24.313110352,25.416839600,,,,,,,,,,,,,,,,,,,,,,,,
1766097781.529396,0.000000000,0.000000000,25.923114777,0.000000000,23.817962646,22.372039795,,,,,,,,,,,,,,,,,,,,,,,,,,,,,,
1766097781.531739,,,,,,,,,,,,,0.000000000,0.000000000,25.927682877,0.000000000,24.220306396,22.263305664,,,,,,,,,,,,,,,,,,
1766097781.535040,,,,,,,,,,,,,,,,,,,,,,,,,0.000000000,0.000101275,25.939104080,0.000000000,23.720306396,25.111877441,,,,,,
1766097781.536919,,,,,,,,,,,,,,,,,,,,,,,,,,,,,,,0.000000000,0.000000000,25.959663391,0.000000000,23.824798584,21.882568359
1766097781.622788,,,,,,,,,,,,,,,,,,,0.000000000,0.000000000,25.927682877,0.000000000,23.882476807,22.885650635,,,,,,,,,,,,
1766097781.629877,0.000000000,0.000000000,25.943674088,0.000000000,23.817474365,22.372039795,,,,,,,,,,,,,,,,,,,,,,,,,,,,,,
1766097781.632307,,,,,,,0.000000000,0.000000000,25.909408569,0.000000000,24.310791016,25.416839600,,,,,,,,,,,,,,,,,,,,,,,,
1766097781.633676,,,,,,,,,,,,,0.000000000,0.000000000,25.918544769,0.000000000,24.219757080,22.262145996,,,,,,,,,,,,,,,,,,
1766097781.640355,,,,,,,,,,,,,,,,,,,,,,,,,0.000000000,0.000000000,25.927682877,0.000000000,23.716064453,25.111877441,,,,,,
1766097781.642945,,,,,,,,,,,,,,,,,,,,,,,,,,,,,,,0.000000000,0.000000000,25.966516495,0.000000000,23.824554443,21.882568359
1766097781.723094,,,,,,,,,,,,,,,,,,,0.000000000,0.000021468,25.934535980,0.000000000,23.884338379,22.885650635,,,,,,,,,,,,
1766097781.727468,,,,,,,0.000000000,0.000000000,25.909408569,0.000000000,24.313171387,25.416839600,,,,,,,,,,,,,,,,,,,,,,,,
1766097781.729770,0.000000000,0.000000000,25.952810287,0.000000000,23.817962646,22.372039795,,,,,,,,,,,,,,,,,,,,,,,,,,,,,,
1766097781.730205,,,,,,,,,,,,,0.000000000,0.000000000,25.927682877,0.000000000,24.219573975,22.260375977,,,,,,,,,,,,,,,,,,
1766097781.740326,,,,,,,,,,,,,,,,,,,,,,,,,0.000000000,0.000000000,25.913976669,0.000000000,23.716796875,25.111877441,,,,,,
1766097781.742919,,,,,,,,,,,,,,,,,,,,,,,,,,,,,,,0.000000000,0.000000000,25.957380295,0.000000000,23.824798584,21.882568359
1766097781.822200,,,,,,,,,,,,,,,,,,,0.000000000,0.000000000,25.913976669,0.000000000,23.884704590,22.885650635,,,,,,,,,,,,
1766097781.827991,,,,,,,0.000000000,0.000000000,25.939104080,0.000000000,24.313537598,25.416839600,,,,,,,,,,,,,,,,,,,,,,,,
1766097781.829370,0.000000000,0.000000000,25.936820984,0.000000000,23.817657471,22.372039795,,,,,,,,,,,,,,,,,,,,,,,,,,,,,,
1766097781.831857,,,,,,,,,,,,,0.000000000,0.000000000,25.918544769,0.000000000,24.220581055,22.259948730,,,,,,,,,,,,,,,,,,
1766097781.836155,,,,,,,,,,,,,,,,,,,,,,,,,0.000000000,0.000000000,25.927682877,0.000000000,23.719421387,25.111877441,,,,,,
1766097781.838262,,,,,,,,,,,,,,,,,,,,,,,,,,,,,,,0.000000000,0.000027749,25.961948395,0.000000000,23.825592041,21.882568359
1766097781.921866,,,,,,,,,,,,,,,,,,,0.000000000,0.000000000,25.907123566,0.000000000,23.885284424,22.885650635,,,,,,,,,,,,
1766097781.927358,,,,,,,0.000000000,0.000064351,25.891132355,0.000000000,24.315948486,25.416839600,,,,,,,,,,,,,,,,,,,,,,,,
1766097781.929847,0.000000000,0.000059826,25.932250977,0.000000000,23.815979004,22.372039795,,,,,,,,,,,,,,,,,,,,,,,,,,,,,,
1766097781.930316,,,,,,,,,,,,,0.000000000,0.000000000,25.925397873,0.000000000,24.221069336,22.257568359,,,,,,,,,,,,,,,,,,
1766097781.935780,,,,,,,,,,,,,,,,,,,,,,,,,0.000000000,0.000000000,25.950527191,0.000000000,23.718811035,25.111877441,,,,,,
1766097781.936080,,,,,,,,,,,,,,,,,,,,,,,,,,,,,,,0.000000000,0.000000000,25.950527191,0.000000000,23.828399658,21.882568359
1766097782.022814,,,,,,,,,,,,,,,,,,,0.000000000,0.000000000,25.913976669,0.000000000,23.886596680,22.885650635,,,,,,,,,,,,
1766097782.027277,,,,,,,0.000000000,0.000000000,25.918544769,0.000000000,24.316802979,25.416839600,,,,,,,,,,,,,,,,,,,,,,,,
1766097782.028782,0.000000000,0.000069282,25.929967880,0.000000000,23.815856934,22.372039795,,,,,,,,,,,,,,,,,,,,,,,,,,,,,,
1766097782.032073,,,,,,,,,,,,,0.000000000,0.000000000,25.934535980,0.000000000,24.221984863,22.257568359,,,,,,,,,,,,,,,,,,
1766097782.034666,,,,,,,,,,,,,,,,,,,,,,,,,0.000000000,0.000000000,25.920829773,0.000000000,23.719848633,25.111877441,,,,,,
1766097782.036858,,,,,,,,,,,,,,,,,,,,,,,,,,,,,,,0.000000000,0.000000000,25.948242188,0.000000000,23.827178955,21.882568359
1766097782.122209,,,,,,,,,,,,,,,,,,,0.000000000,0.000000000,25.920829773,0.000000000,23.887481689,22.885650635,,,,,,,,,,,,
1766097782.128234,,,,,,,0.000000000,0.000000000,25.907123566,0.000000000,24.318298340,25.416839600,,,,,,,,,,,,,,,,,,,,,,,,
1766097782.128648,0.000000000,0.000000000,25.920829773,0.000000000,23.819946289,22.372039795,,,,,,,,,,,,,,,,,,,,,,,,,,,,,,
1766097782.134540,,,,,,,,,,,,,0.000000000,0.000000000,25.929967880,0.000000000,24.220245361,22.257568359,,,,,,,,,,,,,,,,,,
1766097782.139256,,,,,,,,,,,,,,,,,,,,,,,,,0.000000000,0.000253148,25.945957184,0.000000000,23.720428467,25.111877441,,,,,,
1766097782.141987,,,,,,,,,,,,,,,,,,,,,,,,,,,,,,,0.000000000,0.000000000,25.941389084,0.000000000,23.825958252,21.882568359
1766097782.222314,,,,,,,,,,,,,,,,,,,0.000000000,0.000000000,25.948242188,0.000000000,23.886413574,22.885650635,,,,,,,,,,,,
1766097782.227597,,,,,,,0.000000000,0.000353831,25.897985458,0.000000000,24.316436768,25.416839600,,,,,,,,,,,,,,,,,,,,,,,,
1766097782.229021,0.000000000,0.000074933,25.939104080,0.000000000,23.821075439,22.375610352,,,,,,,,,,,,,,,,,,,,,,,,,,,,,,
1766097782.231463,,,,,,,,,,,,,0.000000000,0.000000000,25.929967880,0.000000000,24.225738525,22.259674072,,,,,,,,,,,,,,,,,,
1766097782.234519,,,,,,,,,,,,,,,,,,,,,,,,,0.000000000,0.000033609,25.934535980,0.000000000,23.721099854,25.111877441,,,,,,
1766097782.236486,,,,,,,,,,,,,,,,,,,,,,,,,,,,,,,0.000000000,0.000000000,25.952810287,0.000000000,23.825958252,21.882568359
1766097782.328367,,,,,,,0.000000000,0.000000000,25.911691666,0.000000000,24.316589355,25.416839600,,,,,,,,,,,,,,,,,,,,,,,,
1766097782.328621,0.000000000,0.000000000,25.927682877,0.000000000,23.822448730,22.376037598,,,,,,,,,,,,,,,,,,,,,,,,,,,,,,
1766097782.330463,,,,,,,,,,,,,,,,,,,0.000000000,0.000000000,25.945957184,0.000000000,23.885559082,22.885650635,,,,,,,,,,,,
1766097782.331929,,,,,,,,,,,,,0.000000000,-0.000000000,25.936820984,0.000000000,24.227386475,22.259674072,,,,,,,,,,,,,,,,,,
1766097782.336086,,,,,,,,,,,,,,,,,,,,,,,,,0.000000000,-0.000000000,25.916261673,0.000000000,23.721038818,25.111877441,,,,,,
1766097782.338139,,,,,,,,,,,,,,,,,,,,,,,,,,,,,,,0.000000000,0.000000000,25.955095291,0.000000000,23.827117920,21.882568359
1766097782.421885,,,,,,,,,,,,,,,,,,,0.000000000,0.000000000,25.925397873,0.000000000,23.886566162,22.885650635,,,,,,,,,,,,
1766097782.427462,,,,,,,0.000000000,0.000000000,25.923114777,0.000000000,24.318389893,25.416839600,,,,,,,,,,,,,,,,,,,,,,,,
1766097782.428857,0.000000000,0.000000000,25.943674088,0.000000000,23.827117920,22.376037598,,,,,,,,,,,,,,,,,,,,,,,,,,,,,,
1766097782.431329,,,,,,,,,,,,,0.000000000,0.000013609,25.929967880,0.000000000,24.228210449,22.257873535,,,,,,,,,,,,,,,,,,
1766097782.434624,,,,,,,,,,,,,,,,,,,,,,,,,0.000000000,0.000084077,25.923114777,0.000000000,23.722167969,25.111877441,,,,,,
1766097782.436538,,,,,,,,,,,,,,,,,,,,,,,,,,,,,,,0.000000000,0.000076353,25.945957184,0.000000000,23.829711914,21.882568359
1766097782.522086,,,,,,,,,,,,,,,,,,,0.000000000,0.000000000,25.941389084,0.000000000,23.886810303,22.885650635,,,,,,,,,,,,
1766097782.527486,,,,,,,0.000000000,0.000036740,25.913976669,0.000000000,24.321319580,25.416839600,,,,,,,,,,,,,,,,,,,,,,,,
1766097782.528857,0.000000000,0.000013082,25.934535980,0.000000000,23.823028564,22.376037598,,,,,,,,,,,,,,,,,,,,,,,,,,,,,,
1766097782.531148,,,,,,,,,,,,,0.000000000,0.000036707,25.939104080,0.000000000,24.228637695,22.253448486,,,,,,,,,,,,,,,,,,
1766097782.534782,,,,,,,,,,,,,,,,,,,,,,,,,0.000000000,0.000000000,25.941389084,0.000000000,23.722564697,25.111877441,,,,,,
1766097782.536479,,,,,,,,,,,,,,,,,,,,,,,,,,,,,,,0.000000000,0.000049109,25.959663391,0.000000000,23.831939697,21.882568359
1766097782.621968,,,,,,,,,,,,,,,,,,,0.000000000,0.000000000,25.918544769,0.000000000,23.888092041,22.885650635,,,,,,,,,,,,
1766097782.627746,,,,,,,0.000000000,0.000000000,25.916261673,0.000000000,24.321899414,25.416839600,,,,,,,,,,,,,,,,,,,,,,,,
1766097782.628987,0.000000000,0.000000000,25.943674088,0.000000000,23.820220947,22.376037598,,,,,,,,,,,,,,,,,,,,,,,,,,,,,,
1766097782.634247,,,,,,,,,,,,,0.000000000,0.000004842,25.932250977,0.000000000,24.231658936,22.253448486,,,,,,,,,,,,,,,,,,
