__time,/odrive_axis0/odrive_status/active_errors,/odrive_axis0/odrive_status/bus_current,/odrive_axis0/odrive_status/bus_voltage,/odrive_axis0/odrive_status/disarm_reason,/odrive_axis0/odrive_status/fet_temperature,/odrive_axis0/odrive_status/motor_temperature,/odrive_axis1/odrive_status/active_errors,/odrive_axis1/odrive_status/bus_current,/odrive_axis1/odrive_status/bus_voltage,/odrive_axis1/odrive_status/disarm_reason,/odrive_axis1/odrive_status/fet_temperature,/odrive_axis1/odrive_status/motor_temperature,/odrive_axis2/odrive_status/active_errors,/odrive_axis2/odrive_status/bus_current,/odrive_axis2/odrive_status/bus_voltage,/odrive_axis2/odrive_status/disarm_reason,/odrive_axis2/odrive_status/fet_temperature,/odrive_axis2/odrive_status/motor_temperature,/odrive_axis3/odrive_status/active_errors,/odrive_axis3/odrive_status/bus_current,/odrive_axis3/odrive_status/bus_voltage,/odrive_axis3/odrive_status/disarm_reason,/odrive_axis3/odrive_status/fet_temperature,/odrive_axis3/odrive_status/motor_temperature,/odrive_axis4/odrive_status/active_errors,/odrive_axis4/odrive_status/bus_current,/odrive_axis4/odrive_status/bus_voltage,/odrive_axis4/odrive_status/disarm_reason,/odrive_axis4/odrive_status/fet_temperature,/odrive_axis4/odrive_status/motor_temperature,/odrive_axis5/odrive_status/active_errors,/odrive_axis5/odrive_status/bus_current,/odrive_axis5/odrive_status/bus_voltage,/odrive_axis5/odrive_status/disarm_reason,/odrive_axis5/odrive_status/fet_temperature,/odrive_axis5/odrive_status/motor_temperature
1766087224.121869,,,,,,,,,,,,,,,,,,,,,,,,,,,,,,,134217728.000000000,0.000000000,26.578729630,256.000000000,24.628814697,22.414581299
1766087224.221789,,,,,,,,,,,,,,,,,,,,,,,,,,,,,,,134217728.000000000,0.000000000,25.952810287,256.000000000,24.629302979,22.414581299
1766087224.321748,,,,,,,,,,,,,,,,,,,,,,,,,,,,,,,134217728.000000000,0.000000000,25.945957184,256.000000000,24.632019043,22.414581299
1766087224.421778,,,,,,,,,,,,,,,,,,,,,,,,,,,,,,,134217728.000000000,0.000000000,25.948242188,256.000000000,24.631256104,22.414581299
1766087224.521750,,,,,,,,,,,,,,,,,,,,,,,,,,,,,,,134217728.000000000,0.000000000,25.950527191,256.000000000,24.631683350,22.414581299
1766087224.621806,,,,,,,,,,,,,,,,,,,,,,,,,,,,,,,134217728.000000000,0.000000000,25.941389084,256.000000000,24.633178711,22.414581299
1766087224.721777,,,,,,,,,,,,,,,,,,,,,,,,,,,,,,,134217728.000000000,0.000000000,25.950527191,256.000000000,24.631713867,22.414581299
1766087224.820757,,,,,,,,,,,,,,,,,,,,,,,,,,,,,,,134217728.000000000,0.000000000,25.936820984,256.000000000,24.630767822,22.414581299
1766087224.920779,,,,,,,,,,,,,,,,,,,,,,,,,,,,,,,134217728.000000000,0.000000000,25.955095291,256.000000000,24.630889893,22.414581299
1766087225.020737,,,,,,,,,,,,,,,,,,,,,,,,,,,,,,,134217728.000000000,0.000000000,25.964233398,256.000000000,24.632141113,22.414581299
1766087225.120840,,,,,,,,,,,,,,,,,,,,,,,,,,,,,,,134217728.000000000,0.000000000,25.968801498,256.000000000,24.630645752,22.414581299
1766087225.220764,,,,,,,,,,,,,,,,,,,,,,,,,,,,,,,134217728.000000000,0.000000000,25.957380295,256.000000000,24.630432129,22.414581299
1766087225.320789,,,,,,,,,,,,,,,,,,,,,,,,,,,,,,,134217728.000000000,0.000000000,25.948242188,256.000000000,24.630310059,22.414581299
1766087225.420783,,,,,,,,,,,,,,,,,,,,,,,,,,,,,,,134217728.000000000,0.000000000,25.959663391,256.000000000,24.630737305,22.414581299
1766087225.520766,,,,,,,,,,,,,,,,,,,,,,,,,,,,,,,134217728.000000000,0.000000000,25.959663391,256.000000000,24.630035400,22.414581299
1766087264.992633,,,,,,,,,,,,,,,,,,,,,,,,,,,,,,,0.000000000,0.000075669,25.941389084,0.000000000,25.092346191,22.422058105
1766087265.066105,,,,,,,,,,,,,,,,,,,0.000000000,0.000066220,25.918544769,0.000000000,25.178527832,21.599884033,,,,,,,,,,,,
1766087265.073484,0.000000000,0.000000000,25.929967880,0.000000000,24.968200684,22.480590820,,,,,,,,,,,,,,,,,,,,,,,,,,,,,,
1766087265.083329,,,,,,,,,,,,,0.000000000,0.000000000,25.920829773,0.000000000,25.803283691,21.801788330,,,,,,,,,,,,,,,,,,
1766087265.084765,,,,,,,,,,,,,,,,,,,,,,,,,0.000000000,0.000051336,25.897985458,0.000000000,24.965454102,22.515838623,,,,,,
1766087265.091062,,,,,,,0.000000000,0.000038681,25.909408569,0.000000000,25.749298096,22.624969482,,,,,,,,,,,,,,,,,,,,,,,,
1766087265.092472,,,,,,,,,,,,,,,,,,,,,,,,,,,,,,,0.000000000,0.000095758,25.927682877,0.000000000,25.093170166,22.422058105
1766087265.166158,,,,,,,,,,,,,,,,,,,0.000000000,0.000000000,25.913976669,0.000000000,25.179321289,21.599884033,,,,,,,,,,,,
1766087265.173413,0.000000000,0.000000000,25.943674088,0.000000000,24.966003418,22.480590820,,,,,,,,,,,,,,,,,,,,,,,,,,,,,,
1766087265.182898,,,,,,,,,,,,,0.000000000,0.000030887,25.923114777,0.000000000,25.804901123,21.801788330,,,,,,,,,,,,,,,,,,
1766087265.183292,,,,,,,,,,,,,,,,,,,,,,,,,0.000000000,0.000000000,25.907123566,0.000000000,24.965637207,22.515838623,,,,,,
1766087265.192877,,,,,,,0.000000000,0.000056103,25.913976669,0.000000000,25.749267578,22.624664307,,,,,,,,,,,,,,,,,,,,,,,,
1766087265.198223,,,,,,,,,,,,,,,,,,,,,,,,,,,,,,,0.000000000,0.000015785,25.950527191,0.000000000,25.091705322,22.422058105
1766087265.266181,,,,,,,,,,,,,,,,,,,0.000000000,0.000000000,25.929967880,0.000000000,25.180236816,21.599884033,,,,,,,,,,,,
1766087265.273507,0.000000000,0.000000000,25.927682877,0.000000000,24.968414307,22.480590820,,,,,,,,,,,,,,,,,,,,,,,,,,,,,,
1766087265.282931,,,,,,,,,,,,,0.000000000,0.000042644,25.929967880,0.000000000,25.806060791,21.801788330,,,,,,,,,,,,,,,,,,
1766087265.283232,,,,,,,,,,,,,,,,,,,,,,,,,0.000000000,0.000000000,25.911691666,0.000000000,24.965423584,22.515838623,,,,,,
1766087265.291122,,,,,,,0.000000000,0.000000000,25.902555466,0.000000000,25.749877930,22.621795654,,,,,,,,,,,,,,,,,,,,,,,,
1766087265.292520,,,,,,,,,,,,,,,,,,,,,,,,,,,,,,,0.000000000,0.000000000,25.927682877,0.000000000,25.092956543,22.422058105
1766087265.366063,,,,,,,,,,,,,,,,,,,0.000000000,-0.000000000,25.920829773,0.000000000,25.181457520,21.599884033,,,,,,,,,,,,
1766087265.373433,0.000000000,0.000000000,25.929967880,0.000000000,24.967773438,22.480590820,,,,,,,,,,,,,,,,,,,,,,,,,,,,,,
1766087265.383051,,,,,,,,,,,,,0.000000000,0.000000000,25.911691666,0.000000000,25.805847168,21.801788330,,,,,,,,,,,,,,,,,,
1766087265.383384,,,,,,,,,,,,,,,,,,,,,,,,,0.000000000,0.000000000,25.920829773,0.000000000,24.967254639,22.515838623,,,,,,
1766087265.391108,,,,,,,0.000000000,0.000000000,25.920829773,0.000000000,25.750366211,22.621795654,,,,,,,,,,,,,,,,,,,,,,,,
1766087265.392478,,,,,,,,,,,,,,,,,,,,,,,,,,,,,,,0.000000000,0.000047932,25.936820984,0.000000000,25.094299316,22.422058105
1766087265.470521,,,,,,,,,,,,,,,,,,,0.000000000,0.000000000,25.939104080,0.000000000,25.181030273,21.599884033,,,,,,,,,,,,
1766087265.474931,0.000000000,0.000000000,25.923114777,0.000000000,24.966766357,22.480590820,,,,,,,,,,,,,,,,,,,,,,,,,,,,,,
1766087265.480917,,,,,,,,,,,,,0.000000000,0.000017329,25.920829773,0.000000000,25.805786133,21.801788330,,,,,,,,,,,,,,,,,,
1766087265.483016,,,,,,,,,,,,,,,,,,,,,,,,,0.000000000,0.000000000,25.909408569,0.000000000,24.967193604,22.515838623,,,,,,
1766087265.491132,,,,,,,0.000000000,0.000000000,25.904838562,0.000000000,25.751983643,22.621795654,,,,,,,,,,,,,,,,,,,,,,,,
1766087265.492550,,,,,,,,,,,,,,,,,,,,,,,,,,,,,,,0.000000000,0.000044095,25.950527191,0.000000000,25.093933105,22.422058105
1766087265.566072,,,,,,,,,,,,,,,,,,,0.000000000,0.000129395,25.929967880,0.000000000,25.180480957,21.599884033,,,,,,,,,,,,
1766087265.573402,0.000000000,0.000000000,25.929967880,0.000000000,24.970153809,22.480590820,,,,,,,,,,,,,,,,,,,,,,,,,,,,,,
1766087265.580916,,,,,,,,,,,,,0.000000000,0.000000000,25.923114777,0.000000000,25.808471680,21.801788330,,,,,,,,,,,,,,,,,,
1766087265.583125,,,,,,,,,,,,,,,,,,,,,,,,,0.000000000,0.000000000,25.927682877,0.000000000,24.968109131,22.515838623,,,,,,
1766087265.590710,,,,,,,0.000000000,0.000031869,25.909408569,0.000000000,25.751892090,22.621795654,,,,,,,,,,,,,,,,,,,,,,,,
1766087265.594669,,,,,,,,,,,,,,,,,,,,,,,,,,,,,,,0.000000000,0.000000000,25.932250977,0.000000000,25.093841553,22.422058105
1766087265.665123,,,,,,,,,,,,,,,,,,,0.000000000,0.000000000,25.909408569,0.000000000,25.181762695,21.599884033,,,,,,,,,,,,
1766087265.672456,0.000000000,0.000000000,25.932250977,0.000000000,24.968017578,22.480590820,,,,,,,,,,,,,,,,,,,,,,,,,,,,,,
1766087265.680968,,,,,,,,,,,,,0.000000000,-0.000000000,25.936820984,0.000000000,25.806671143,21.801788330,,,,,,,,,,,,,,,,,,
1766087265.683012,,,,,,,,,,,,,,,,,,,,,,,,,0.000000000,0.000000000,25.902555466,0.000000000,24.968078613,22.515838623,,,,,,
1766087265.689304,,,,,,,0.000000000,0.000000000,25.904838562,0.000000000,25.751312256,22.621673584,,,,,,,,,,,,,,,,,,,,,,,,
1766087265.691568,,,,,,,,,,,,,,,,,,,,,,,,,,,,,,,0.000000000,0.000000000,25.925397873,0.000000000,25.095306396,22.422058105
1766087265.765230,,,,,,,,,,,,,,,,,,,0.000000000,0.000002427,25.923114777,0.000000000,25.182006836,21.599884033,,,,,,,,,,,,
1766087265.772404,0.000000000,0.000000000,25.934535980,0.000000000,24.968170166,22.480590820,,,,,,,,,,,,,,,,,,,,,,,,,,,,,,
1766087265.780995,,,,,,,,,,,,,0.000000000,0.000000000,25.913976669,0.000000000,25.809082031,21.801788330,,,,,,,,,,,,,,,,,,
1766087265.783103,,,,,,,,,,,,,,,,,,,,,,,,,0.000000000,0.000000000,25.911691666,0.000000000,24.968414307,22.515380859,,,,,,
1766087265.789252,,,,,,,0.000000000,0.000091764,25.911691666,0.000000000,25.752899170,22.621673584,,,,,,,,,,,,,,,,,,,,,,,,
1766087265.791539,,,,,,,,,,,,,,,,,,,,,,,,,,,,,,,0.000000000,0.000000000,25.934535980,0.000000000,25.093658447,22.422058105
1766087265.869946,,,,,,,,,,,,,,,,,,,0.000000000,0.000000000,25.941389084,0.000000000,25.184082031,21.599884033,,,,,,,,,,,,
1766087265.873628,0.000000000,0.000000000,25.923114777,0.000000000,24.965301514,22.480590820,,,,,,,,,,,,,,,,,,,,,,,,,,,,,,
1766087265.880910,,,,,,,,,,,,,0.000000000,0.000000000,25.932250977,0.000000000,25.807403564,21.801788330,,,,,,,,,,,,,,,,,,
1766087265.882810,,,,,,,,,,,,,,,,,,,,,,,,,0.000000000,0.000000000,25.904838562,0.000000000,24.968566895,22.515380859,,,,,,
1766087265.889183,,,,,,,0.000000000,0.000000000,25.913976669,0.000000000,25.754425049,22.621673584,,,,,,,,,,,,,,,,,,,,,,,,
1766087265.891549,,,,,,,,,,,,,,,,,,,,,,,,,,,,,,,0.000000000,0.000017963,25.957380295,0.000000000,25.095611572,22.422058105
1766087265.965278,,,,,,,,,,,,,,,,,,,0.000000000,0.000092376,25.916261673,0.000000000,25.185394287,21.599884033,,,,,,,,,,,,
1766087265.974513,0.000000000,0.000000000,25.939104080,0.000000000,24.965301514,22.480590820,,,,,,,,,,,,,,,,,,,,,,,,,,,,,,
1766087265.981052,,,,,,,,,,,,,0.000000000,0.000000000,25.936820984,0.000000000,25.808197021,21.801788330,,,,,,,,,,,,,,,,,,
1766087265.982841,,,,,,,,,,,,,,,,,,,,,,,,,0.000000000,-0.000000000,25.904838562,0.000000000,24.967559814,22.515380859,,,,,,
1766087265.989188,,,,,,,0.000000000,0.000000000,25.907123566,0.000000000,25.756072998,22.621673584,,,,,,,,,,,,,,,,,,,,,,,,
1766087265.991616,,,,,,,,,,,,,,,,,,,,,,,,,,,,,,,0.000000000,0.000000000,25.980222702,0.000000000,25.096160889,22.422058105
1766087266.065280,,,,,,,,,,,,,,,,,,,0.000000000,0.000000000,25.927682877,0.000000000,25.182617188,21.599884033,,,,,,,,,,,,
1766087266.074438,0.000000000,0.000000000,25.923114777,0.000000000,24.968994141,22.480590820,,,,,,,,,,,,,,,,,,,,,,,,,,,,,,
1766087266.082286,,,,,,,,,,,,,0.000000000,-0.000000000,25.925397873,0.000000000,25.806427002,21.801788330,,,,,,,,,,,,,,,,,,
1766087266.083668,,,,,,,,,,,,,,,,,,,,,,,,,0.000000000,0.000000000,25.918544769,0.000000000,24.968292236,22.512969971,,,,,,
1766087266.089285,,,,,,,0.000000000,0.000000000,25.907123566,0.000000000,25.755096436,22.621673584,,,,,,,,,,,,,,,,,,,,,,,,
1766087266.091573,,,,,,,,,,,,,,,,,,,,,,,,,,,,,,,0.000000000,0.000000000,25.950527191,0.000000000,25.097839355,22.422058105
1766087266.165320,,,,,,,,,,,,,,,,,,,0.000000000,0.000000000,25.920829773,0.000000000,25.185577393,21.599884033,,,,,,,,,,,,
1766087266.172593,0.000000000,0.000000000,25.941389084,0.000000000,24.968139648,22.480590820,,,,,,,,,,,,,,,,,,,,,,,,,,,,,,
1766087266.182466,,,,,,,,,,,,,0.000000000,0.000132469,25.916261673,0.000000000,25.809082031,21.801788330,,,,,,,,,,,,,,,,,,
1766087266.184765,,,,,,,,,,,,,,,,,,,,,,,,,0.000000000,0.000000000,25.918544769,0.000000000,24.970581055,22.512969971,,,,,,
1766087266.190313,,,,,,,0.000000000,0.000021567,25.904838562,0.000000000,25.755920410,22.621673584,,,,,,,,,,,,,,,,,,,,,,,,
1766087266.191505,,,,,,,,,,,,,,,,,,,,,,,,,,,,,,,0.000000000,0.000000000,25.950527191,0.000000000,25.097717285,22.422058105
1766087266.265329,,,,,,,,,,,,,,,,,,,0.000000000,0.000094206,25.920829773,0.000000000,25.185302734,21.599884033,,,,,,,,,,,,
1766087266.272458,0.000000000,0.000039537,25.929967880,0.000000000,24.969604492,22.480590820,,,,,,,,,,,,,,,,,,,,,,,,,,,,,,
1766087266.282031,,,,,,,,,,,,,0.000000000,0.000000000,25.936820984,0.000000000,25.809814453,21.801788330,,,,,,,,,,,,,,,,,,
1766087266.284454,,,,,,,,,,,,,,,,,,,,,,,,,0.000000000,0.000000000,25.904838562,0.000000000,24.970642090,22.512969971,,,,,,
1766087266.291288,,,,,,,0.000000000,0.000000000,25.875143051,0.000000000,25.754577637,22.621673584,,,,,,,,,,,,,,,,,,,,,,,,
1766087266.294182,,,,,,,,,,,,,,,,,,,,,,,,,,,,,,,0.000000000,0.000000000,25.936820984,0.000000000,25.097930908,22.422058105
1766087266.365278,,,,,,,,,,,,,,,,,,,0.000000000,0.000000000,25.900270462,0.000000000,25.186340332,21.599884033,,,,,,,,,,,,
1766087266.372438,0.000000000,0.000000000,25.932250977,0.000000000,24.971191406,22.480590820,,,,,,,,,,,,,,,,,,,,,,,,,,,,,,
1766087266.382953,,,,,,,,,,,,,0.000000000,0.000000000,25.943674088,0.000000000,25.810089111,21.801788330,,,,,,,,,,,,,,,,,,
1766087266.389307,,,,,,,,,,,,,,,,,,,,,,,,,0.000000000,0.000000000,25.891132355,0.000000000,24.969329834,22.512969971,,,,,,
1766087266.390726,,,,,,,0.000000000,0.000099835,25.900270462,0.000000000,25.756835938,22.621673584,,,,,,,,,,,,,,,,,,,,,,,,
1766087266.394590,,,,,,,,,,,,,,,,,,,,,,,,,,,,,,,0.000000000,0.000000000,25.945957184,0.000000000,25.098510742,22.422058105
1766087266.465134,,,,,,,,,,,,,,,,,,,0.000000000,0.000000000,25.911691666,0.000000000,25.186859131,21.599884033,,,,,,,,,,,,
1766087266.472444,0.000000000,0.000000000,25.941389084,0.000000000,24.970001221,22.480590820,,,,,,,,,,,,,,,,,,,,,,,,,,,,,,
1766087266.480906,,,,,,,,,,,,,0.000000000,0.000000000,25.923114777,0.000000000,25.812530518,21.801788330,,,,,,,,,,,,,,,,,,
1766087266.482841,,,,,,,,,,,,,,,,,,,,,,,,,0.000000000,0.000000000,25.911691666,0.000000000,24.972106934,22.512969971,,,,,,
1766087266.490166,,,,,,,0.000000000,0.000000000,25.881996155,0.000000000,25.757537842,22.621673584,,,,,,,,,,,,,,,,,,,,,,,,
1766087266.491497,,,,,,,,,,,,,,,,,,,,,,,,,,,,,,,0.000000000,0.000073153,25.934535980,0.000000000,25.098266602,22.422058105
1766087266.565276,,,,,,,,,,,,,,,,,,,0.000000000,0.000000000,25.927682877,0.000000000,25.186187744,21.599884033,,,,,,,,,,,,
1766087266.572490,0.000000000,0.000000000,25.925397873,0.000000000,24.970733643,22.480590820,,,,,,,,,,,,,,,,,,,,,,,,,,,,,,
1766087266.580925,,,,,,,,,,,,,0.000000000,0.000000063,25.925397873,0.000000000,25.811553955,21.801788330,,,,,,,,,,,,,,,,,,
1766087266.582764,,,,,,,,,,,,,,,,,,,,,,,,,0.000000000,0.000000000,25.904838562,0.000000000,24.971466064,22.512969971,,,,,,
1766087266.590116,,,,,,,0.000000000,0.000000000,25.923114777,0.000000000,25.758178711,22.621673584,,,,,,,,,,,,,,,,,,,,,,,,
1766087266.591537,,,,,,,,,,,,,,,,,,,,,,,,,,,,,,,0.000000000,-0.000000000,25.936820984,0.000000000,25.098297119,22.422058105
1766087266.664946,,,,,,,,,,,,,,,,,,,0.000000000,0.000000000,25.925397873,0.000000000,25.185791016,21.599884033,,,,,,,,,,,,
1766087266.672619,0.000000000,0.000000000,25.925397873,0.000000000,24.971130371,22.480590820,,,,,,,,,,,,,,,,,,,,,,,,,,,,,,
1766087266.681021,,,,,,,,,,,,,0.000000000,0.000190665,25.907123566,0.000000000,25.812896729,21.801788330,,,,,,,,,,,,,,,,,,
1766087266.682845,,,,,,,,,,,,,,,,,,,,,,,,,0.000000000,0.000000000,25.916261673,0.000000000,24.971496582,22.512969971,,,,,,
1766087266.690284,,,,,,,0.000000000,0.000048658,25.900270462,0.000000000,25.757568359,22.621673584,,,,,,,,,,,,,,,,,,,,,,,,
1766087266.691618,,,,,,,,,,,,,,,,,,,,,,,,,,,,,,,0.000000000,0.000000000,25.945957184,0.000000000,25.099609375,22.422058105
1766087266.765267,,,,,,,,,,,,,,,,,,,0.000000000,0.000000000,25.913976669,0.000000000,25.187072754,21.599884033,,,,,,,,,,,,
1766087266.774086,0.000000000,0.000000000,25.923114777,0.000000000,24.971282959,22.480590820,,,,,,,,,,,,,,,,,,,,,,,,,,,,,,
1766087266.781361,,,,,,,,,,,,,0.000000000,0.000000000,25.923114777,0.000000000,25.812377930,21.801788330,,,,,,,,,,,,,,,,,,
1766087266.783273,,,,,,,,,,,,,,,,,,,,,,,,,0.000000000,0.000000000,25.913976669,0.000000000,24.972869873,22.512969971,,,,,,
1766087266.790106,,,,,,,0.000000000,0.000000000,25.900270462,0.000000000,25.761199951,22.621673584,,,,,,,,,,,,,,,,,,,,,,,,
1766087266.791513,,,,,,,,,,,,,,,,,,,,,,,,,,,,,,,0.000000000,0.000000000,25.932250977,0.000000000,25.099334717,22.422058105
1766087266.865233,,,,,,,,,,,,,,,,,,,0.000000000,0.000000000,25.918544769,0.000000000,25.188964844,21.599884033,,,,,,,,,,,,
1766087266.872565,0.000000000,0.000000000,25.925397873,0.000000000,24.971923828,22.480590820,,,,,,,,,,,,,,,,,,,,,,,,,,,,,,
1766087266.878993,,,,,,,,,,,,,0.000000000,0.000000000,25.918544769,0.000000000,25.814147949,21.801788330,,,,,,,,,,,,,,,,,,
1766087266.881988,,,,,,,,,,,,,,,,,,,,,,,,,0.000000000,0.000000000,25.909408569,0.000000000,24.972473145,22.512969971,,,,,,
1766087266.889742,,,,,,,0.000000000,0.000000000,25.900270462,0.000000000,25.761688232,22.621673584,,,,,,,,,,,,,,,,,,,,,,,,
1766087266.893802,,,,,,,,,,,,,,,,,,,,,,,,,,,,,,,0.000000000,0.000000000,25.932250977,0.000000000,25.100372314,22.422058105
1766087266.964121,,,,,,,,,,,,,,,,,,,0.000000000,0.000000000,25.929967880,0.000000000,25.186340332,21.599884033,,,,,,,,,,,,
1766087266.971512,0.000000000,0.000000000,25.925397873,0.000000000,24.972656250,22.480590820,,,,,,,,,,,,,,,,,,,,,,,,,,,,,,
1766087266.979142,,,,,,,,,,,,,0.000000000,0.000000000,25.916261673,0.000000000,25.815551758,21.801788330,,,,,,,,,,,,,,,,,,
1766087266.982152,,,,,,,,,,,,,,,,,,,,,,,,,0.000000000,0.000000000,25.897985458,0.000000000,24.972106934,22.512542725,,,,,,
1766087266.989885,,,,,,,0.000000000,0.000000000,25.911691666,0.000000000,25.759063721,22.621673584,,,,,,,,,,,,,,,,,,,,,,,,
1766087266.996510,,,,,,,,,,,,,,,,,,,,,,,,,,,,,,,0.000000000,0.000054647,25.936820984,0.000000000,25.100494385,22.422058105
1766087267.064291,,,,,,,,,,,,,,,,,,,0.000000000,0.000000000,25.941389084,0.000000000,25.189086914,21.599884033,,,,,,,,,,,,
1766087267.071441,0.000000000,0.000000000,25.934535980,0.000000000,24.972991943,22.480590820,,,,,,,,,,,,,,,,,,,,,,,,,,,,,,
1766087267.078956,,,,,,,,,,,,,0.000000000,0.000000000,25.907123566,0.000000000,25.814025879,21.801788330,,,,,,,,,,,,,,,,,,
1766087267.081843,,,,,,,,,,,,,,,,,,,,,,,,,0.000000000,0.000000000,25.918544769,0.000000000,24.972808838,22.512542725,,,,,,
1766087267.088214,,,,,,,0.000000000,0.000000000,25.923114777,0.000000000,25.761260986,22.621673584,,,,,,,,,,,,,,,,,,,,,,,,
1766087267.096715,,,,,,,,,,,,,,,,,,,,,,,,,,,,,,,0.000000000,0.000000000,25.918544769,0.000000000,25.101470947,22.422058105
1766087267.164447,,,,,,,,,,,,,,,,,,,0.000000000,0.000021348,25.939104080,0.000000000,25.188110352,21.599884033,,,,,,,,,,,,
1766087267.171468,0.000000000,0.000071860,25.913976669,0.000000000,24.971710205,22.480590820,,,,,,,,,,,,,,,,,,,,,,,,,,,,,,
1766087267.178986,,,,,,,,,,,,,0.000000000,0.000000000,25.913976669,0.000000000,25.814697266,21.801788330,,,,,,,,,,,,,,,,,,
1766087267.181893,,,,,,,,,,,,,,,,,,,,,,,,,0.000000000,0.000000000,25.907123566,0.000000000,24.973541260,22.512542725,,,,,,
1766087267.188146,,,,,,,0.000000000,0.000040187,25.902555466,0.000000000,25.760650635,22.621673584,,,,,,,,,,,,,,,,,,,,,,,,
1766087267.190551,,,,,,,,,,,,,,,,,,,,,,,,,,,,,,,0.000000000,0.000000000,25.952810287,0.000000000,25.100585938,22.422058105
1766087267.269178,,,,,,,,,,,,,,,,,,,0.000000000,0.000000000,25.907123566,0.000000000,25.189971924,21.599884033,,,,,,,,,,,,
1766087267.273152,0.000000000,0.000000000,25.936820984,0.000000000,24.973602295,22.480590820,,,,,,,,,,,,,,,,,,,,,,,,,,,,,,
1766087267.279011,,,,,,,,,,,,,0.000000000,0.000000000,25.916261673,0.000000000,25.813934326,21.801788330,,,,,,,,,,,,,,,,,,
1766087267.281837,,,,,,,,,,,,,,,,,,,,,,,,,0.000000000,0.000000000,25.918544769,0.000000000,24.974517822,22.511718750,,,,,,
1766087267.288189,,,,,,,0.000000000,0.000000000,25.907123566,0.000000000,25.762451172,22.621673584,,,,,,,,,,,,,,,,,,,,,,,,
1766087267.290583,,,,,,,,,,,,,,,,,,,,,,,,,,,,,,,0.000000000,0.000007154,25.913976669,0.000000000,25.100189209,22.422058105
1766087267.364286,,,,,,,,,,,,,,,,,,,0.000000000,0.000026917,25.916261673,0.000000000,25.188568115,21.599884033,,,,,,,,,,,,
1766087267.372016,0.000000000,0.000000000,25.927682877,0.000000000,24.973724365,22.480590820,,,,,,,,,,,,,,,,,,,,,,,,,,,,,,
1766087267.381245,,,,,,,,,,,,,0.000000000,0.000000000,25.916261673,0.000000000,25.816375732,21.801788330,,,,,,,,,,,,,,,,,,
1766087267.386596,,,,,,,,,,,,,,,,,,,,,,,,,0.000000000,0.000000000,25.913976669,0.000000000,24.975616455,22.511688232,,,,,,
1766087267.390063,,,,,,,0.000000000,0.000000000,25.920829773,0.000000000,25.761291504,22.621673584,,,,,,,,,,,,,,,,,,,,,,,,
1766087267.391880,,,,,,,,,,,,,,,,,,,,,,,,,,,,,,,0.000000000,0.000000000,25.934535980,0.000000000,25.102752686,22.422058105
1766087267.464178,,,,,,,,,,,,,,,,,,,0.000000000,0.000000000,25.923114777,0.000000000,25.191345215,21.599884033,,,,,,,,,,,,
1766087267.471488,0.000000000,0.000013829,25.923114777,0.000000000,24.972534180,22.480590820,,,,,,,,,,,,,,,,,,,,,,,,,,,,,,
1766087267.481003,,,,,,,,,,,,,0.000000000,0.000000000,25.911691666,0.000000000,25.816528320,21.801788330,,,,,,,,,,,,,,,,,,
1766087267.487293,,,,,,,,,,,,,,,,,,,,,,,,,0.000000000,0.000000000,25.916261673,0.000000000,24.976715088,22.510070801,,,,,,
1766087267.489681,,,,,,,0.000000000,0.000117462,25.904838562,0.000000000,25.763610840,22.621673584,,,,,,,,,,,,,,,,,,,,,,,,
1766087267.493567,,,,,,,,,,,,,,,,,,,,,,,,,,,,,,,0.000000000,-0.000000000,25.927682877,0.000000000,25.102691650,22.422058105
1766087267.564357,,,,,,,,,,,,,,,,,,,0.000000000,0.000000000,25.911691666,0.000000000,25.191772461,21.599884033,,,,,,,,,,,,
1766087267.571522,0.000000000,0.000000000,25.925397873,0.000000000,24.973815918,22.480590820,,,,,,,,,,,,,,,,,,,,,,,,,,,,,,
1766087267.579018,,,,,,,,,,,,,0.000000000,0.000024206,25.918544769,0.000000000,25.818023682,21.801788330,,,,,,,,,,,,,,,,,,
1766087267.588784,,,,,,,,,,,,,,,,,,,,,,,,,0.000000000,0.000000000,25.907123566,0.000000000,24.974853516,22.510070801,,,,,,
1766087267.589232,,,,,,,0.000000000,-0.000000000,25.916261673,0.000000000,25.763397217,22.621673584,,,,,,,,,,,,,,,,,,,,,,,,
1766087267.593607,,,,,,,,,,,,,,,,,,,,,,,,,,,,,,,0.000000000,0.000000000,25.941389084,0.000000000,25.101623535,22.422058105
1766087267.664444,,,,,,,,,,,,,,,,,,,0.000000000,0.000000000,25.929967880,0.000000000,25.190612793,21.599884033,,,,,,,,,,,,
1766087267.671623,0.000000000,0.000000000,25.918544769,0.000000000,24.975372314,22.480590820,,,,,,,,,,,,,,,,,,,,,,,,,,,,,,
1766087267.679223,,,,,,,,,,,,,0.000000000,0.000000000,25.925397873,0.000000000,25.817657471,21.800628662,,,,,,,,,,,,,,,,,,
1766087267.682033,,,,,,,,,,,,,,,,,,,,,,,,,0.000000000,0.000009981,25.918544769,0.000000000,24.976470947,22.509948730,,,,,,
1766087267.690147,,,,,,,0.000000000,0.000037698,25.913976669,0.000000000,25.763366699,22.621673584,,,,,,,,,,,,,,,,,,,,,,,,
1766087267.695462,,,,,,,,,,,,,,,,,,,,,,,,,,,,,,,0.000000000,0.000035885,25.932250977,0.000000000,25.103729248,22.422058105
1766087267.764341,,,,,,,,,,,,,,,,,,,0.000000000,0.000000000,25.913976669,0.000000000,25.192047119,21.599884033,,,,,,,,,,,,
1766087267.771516,0.000000000,0.000042505,25.932250977,0.000000000,24.975250244,22.480590820,,,,,,,,,,,,,,,,,,,,,,,,,,,,,,
1766087267.779065,,,,,,,,,,,,,0.000000000,0.000000000,25.918544769,0.000000000,25.818206787,21.800628662,,,,,,,,,,,,,,,,,,
1766087267.781850,,,,,,,,,,,,,,,,,,,,,,,,,0.000000000,0.000000000,25.916261673,0.000000000,24.977050781,22.509948730,,,,,,
1766087267.790140,,,,,,,0.000000000,0.000000000,25.900270462,0.000000000,25.764343262,22.621673584,,,,,,,,,,,,,,,,,,,,,,,,
1766087267.796549,,,,,,,,,,,,,,,,,,,,,,,,,,,,,,,0.000000000,0.000000000,25.982507706,0.000000000,25.103118896,22.422058105
1766087267.864210,,,,,,,,,,,,,,,,,,,0.000000000,0.000016918,25.925397873,0.000000000,25.191528320,21.599884033,,,,,,,,,,,,
1766087267.871565,0.000000000,0.000000191,25.920829773,0.000000000,24.975189209,22.480590820,,,,,,,,,,,,,,,,,,,,,,,,,,,,,,
1766087267.879039,,,,,,,,,,,,,0.000000000,0.000000000,25.918544769,0.000000000,25.821807861,21.800628662,,,,,,,,,,,,,,,,,,
1766087267.881876,,,,,,,,,,,,,,,,,,,,,,,,,0.000000000,0.000046452,25.911691666,0.000000000,24.977783203,22.509948730,,,,,,
1766087267.889173,,,,,,,0.000000000,0.000000000,25.900270462,0.000000000,25.763916016,22.621673584,,,,,,,,,,,,,,,,,,,,,,,,
1766087267.890634,,,,,,,,,,,,,,,,,,,,,,,,,,,,,,,0.000000000,0.000000000,25.936820984,0.000000000,25.103454590,22.422058105
1766087267.964453,,,,,,,,,,,,,,,,,,,0.000000000,0.000000000,25.925397873,0.000000000,25.191986084,21.599884033,,,,,,,,,,,,
1766087267.971455,0.000000000,0.000000000,25.934535980,0.000000000,24.975341797,22.480590820,,,,,,,,,,,,,,,,,,,,,,,,,,,,,,
1766087267.979517,,,,,,,,,,,,,0.000000000,0.000000000,25.918544769,0.000000000,25.823089600,21.800628662,,,,,,,,,,,,,,,,,,
1766087267.981961,,,,,,,,,,,,,,,,,,,,,,,,,0.000000000,0.000000000,25.913976669,0.000000000,24.979034424,22.509948730,,,,,,
1766087267.989175,,,,,,,0.000000000,0.000000000,25.893417358,0.000000000,25.766113281,22.621673584,,,,,,,,,,,,,,,,,,,,,,,,
1766087267.990570,,,,,,,,,,,,,,,,,,,,,,,,,,,,,,,0.000000000,0.000000000,25.943674088,0.000000000,25.102050781,22.422058105
1766087268.064082,,,,,,,,,,,,,,,,,,,0.000000000,0.000000000,25.916261673,0.000000000,25.192779541,21.599884033,,,,,,,,,,,,
1766087268.072892,0.000000000,0.000000000,25.936820984,0.000000000,24.974639893,22.480590820,,,,,,,,,,,,,,,,,,,,,,,,,,,,,,
1766087268.077931,,,,,,,,,,,,,0.000000000,0.000000000,25.932250977,0.000000000,25.822174072,21.800628662,,,,,,,,,,,,,,,,,,
1766087268.081043,,,,,,,,,,,,,,,,,,,,,,,,,0.000000000,0.000000000,25.900270462,0.000000000,24.980224609,22.509948730,,,,,,
1766087268.089139,,,,,,,0.000000000,0.000000000,25.911691666,0.000000000,25.766662598,22.621673584,,,,,,,,,,,,,,,,,,,,,,,,
1766087268.090611,,,,,,,,,,,,,,,,,,,,,,,,,,,,,,,0.000000000,0.000000000,25.927682877,0.000000000,25.105285645,22.422058105
1766087268.164160,,,,,,,,,,,,,,,,,,,0.000000000,0.000000000,25.916261673,0.000000000,25.191253662,21.599884033,,,,,,,,,,,,
1766087268.171494,0.000000000,0.000041877,25.925397873,0.000000000,24.976196289,22.480590820,,,,,,,,,,,,,,,,,,,,,,,,,,,,,,
1766087268.180481,,,,,,,,,,,,,0.000000000,0.000000000,25.923114777,0.000000000,25.820770264,21.800628662,,,,,,,,,,,,,,,,,,
1766087268.188715,,,,,,,0.000000000,0.000030973,25.925397873,0.000000000,25.764343262,22.621673584,,,,,,,,,,,,,,,,,,,,,,,,
1766087268.189207,,,,,,,,,,,,,,,,,,,,,,,,,0.000000000,0.000000000,25.897985458,0.000000000,24.979370117,22.509948730,,,,,,
1766087268.192586,,,,,,,,,,,,,,,,,,,,,,,,,,,,,,,0.000000000,0.000064770,25.932250977,0.000000000,25.104675293,22.422058105
1766087268.263490,,,,,,,,,,,,,,,,,,,0.000000000,0.000000000,25.909408569,0.000000000,25.193084717,21.599884033,,,,,,,,,,,,
1766087268.270474,0.000000000,0.000047213,25.929967880,0.000000000,24.976257324,22.480590820,,,,,,,,,,,,,,,,,,,,,,,,,,,,,,
1766087268.278044,,,,,,,,,,,,,0.000000000,0.000000000,25.918544769,0.000000000,25.822235107,21.800628662,,,,,,,,,,,,,,,,,,
1766087268.281172,,,,,,,,,,,,,,,,,,,,,,,,,0.000000000,0.000000000,25.904838562,0.000000000,24.979187012,22.509948730,,,,,,
1766087268.289668,,,,,,,0.000000000,0.000000000,25.895702362,0.000000000,25.766174316,22.621673584,,,,,,,,,,,,,,,,,,,,,,,,
1766087268.295568,,,,,,,,,,,,,,,,,,,,,,,,,,,,,,,0.000000000,0.000000000,25.936820984,0.000000000,25.106201172,22.422058105
1766087268.363228,,,,,,,,,,,,,,,,,,,0.000000000,0.000098515,25.934535980,0.000000000,25.192901611,21.599884033,,,,,,,,,,,,
1766087268.370528,0.000000000,0.000000000,25.923114777,0.000000000,24.975341797,22.480590820,,,,,,,,,,,,,,,,,,,,,,,,,,,,,,
1766087268.377969,,,,,,,,,,,,,0.000000000,0.000000000,25.925397873,0.000000000,25.821533203,21.800628662,,,,,,,,,,,,,,,,,,
1766087268.381061,,,,,,,,,,,,,,,,,,,,,,,,,0.000000000,0.000000000,25.918544769,0.000000000,24.978698730,22.509948730,,,,,,
1766087268.387181,,,,,,,0.000000000,0.000020269,25.904838562,0.000000000,25.767456055,22.621673584,,,,,,,,,,,,,,,,,,,,,,,,
1766087268.389612,,,,,,,,,,,,,,,,,,,,,,,,,,,,,,,0.000000000,0.000000000,25.934535980,0.000000000,25.105438232,22.422058105
1766087268.463286,,,,,,,,,,,,,,,,,,,0.000000000,0.000087090,25.913976669,0.000000000,25.193115234,21.599884033,,,,,,,,,,,,
1766087268.470505,0.000000000,0.000000000,25.925397873,0.000000000,24.976501465,22.480590820,,,,,,,,,,,,,,,,,,,,,,,,,,,,,,
1766087268.478208,,,,,,,,,,,,,0.000000000,0.000000000,25.920829773,0.000000000,25.820953369,21.800628662,,,,,,,,,,,,,,,,,,
1766087268.481132,,,,,,,,,,,,,,,,,,,,,,,,,0.000000000,0.000001954,25.920829773,0.000000000,24.980438232,22.509948730,,,,,,
1766087268.487236,,,,,,,0.000000000,0.000000000,25.927682877,0.000000000,25.767425537,22.621673584,,,,,,,,,,,,,,,,,,,,,,,,
1766087268.489596,,,,,,,,,,,,,,,,,,,,,,,,,,,,,,,0.000000000,0.000005977,25.934535980,0.000000000,25.105804443,22.422058105
1766087268.568036,,,,,,,,,,,,,,,,,,,0.000000000,0.000000000,25.916261673,0.000000000,25.193695068,21.599884033,,,,,,,,,,,,
1766087268.572061,0.000000000,0.000000000,25.925397873,0.000000000,24.978210449,22.480590820,,,,,,,,,,,,,,,,,,,,,,,,,,,,,,
1766087268.578039,,,,,,,,,,,,,0.000000000,0.000058980,25.909408569,0.000000000,25.821838379,21.800628662,,,,,,,,,,,,,,,,,,
1766087268.581216,,,,,,,,,,,,,,,,,,,,,,,,,0.000000000,0.000000000,25.909408569,0.000000000,24.981689453,22.509948730,,,,,,
1766087268.587255,,,,,,,0.000000000,0.000003882,25.929967880,0.000000000,25.768127441,22.621673584,,,,,,,,,,,,,,,,,,,,,,,,
1766087268.589571,,,,,,,,,,,,,,,,,,,,,,,,,,,,,,,0.000000000,0.000000000,25.920829773,0.000000000,25.106628418,22.422058105
1766087268.663141,,,,,,,,,,,,,,,,,,,0.000000000,0.000000000,25.923114777,0.000000000,25.195281982,21.599884033,,,,,,,,,,,,
1766087268.670539,0.000000000,0.000000000,25.932250977,0.000000000,24.976226807,22.480590820,,,,,,,,,,,,,,,,,,,,,,,,,,,,,,
1766087268.680859,,,,,,,,,,,,,0.000000000,0.000000000,25.911691666,0.000000000,25.824340820,21.800628662,,,,,,,,,,,,,,,,,,
1766087268.684741,,,,,,,,,,,,,,,,,,,,,,,,,0.000000000,0.000000000,25.911691666,0.000000000,24.981170654,22.509948730,,,,,,
1766087268.689063,,,,,,,0.000000000,0.000000000,25.911691666,0.000000000,25.767944336,22.621673584,,,,,,,,,,,,,,,,,,,,,,,,
1766087268.690453,,,,,,,,,,,,,,,,,,,,,,,,,,,,,,,0.000000000,0.000062394,25.952810287,0.000000000,25.106079102,22.422058105
1766087268.763350,,,,,,,,,,,,,,,,,,,0.000000000,0.000038116,25.918544769,0.000000000,25.194763184,21.599884033,,,,,,,,,,,,
1766087268.770473,0.000000000,0.000000000,25.925397873,0.000000000,24.978149414,22.480590820,,,,,,,,,,,,,,,,,,,,,,,,,,,,,,
1766087268.778090,,,,,,,,,,,,,0.000000000,-0.000000000,25.936820984,0.000000000,25.823974609,21.800628662,,,,,,,,,,,,,,,,,,
1766087268.780816,,,,,,,,,,,,,,,,,,,,,,,,,0.000000000,0.000019927,25.923114777,0.000000000,24.981567383,22.509948730,,,,,,
1766087268.788706,,,,,,,0.000000000,0.000000000,25.913976669,0.000000000,25.768585205,22.621673584,,,,,,,,,,,,,,,,,,,,,,,,
1766087268.795541,,,,,,,,,,,,,,,,,,,,,,,,,,,,,,,0.000000000,-0.000000000,25.929967880,0.000000000,25.105529785,22.422058105
1766087268.863183,,,,,,,,,,,,,,,,,,,0.000000000,0.000021098,25.900270462,0.000000000,25.196807861,21.599884033,,,,,,,,,,,,
1766087268.870633,0.000000000,0.000000000,25.932250977,0.000000000,24.977966309,22.480590820,,,,,,,,,,,,,,,,,,,,,,,,,,,,,,
1766087268.878086,,,,,,,,,,,,,0.000000000,0.000000000,25.927682877,0.000000000,25.824005127,21.800628662,,,,,,,,,,,,,,,,,,
1766087268.880855,,,,,,,,,,,,,,,,,,,,,,,,,0.000000000,0.000000000,25.916261673,0.000000000,24.982666016,22.509948730,,,,,,
1766087268.888120,,,,,,,0.000000000,0.000000000,25.909408569,0.000000000,25.768890381,22.621673584,,,,,,,,,,,,,,,,,,,,,,,,
1766087268.889541,,,,,,,,,,,,,,,,,,,,,,,,,,,,,,,0.000000000,0.000000000,25.925397873,0.000000000,25.106506348,22.422058105
1766087268.963158,,,,,,,,,,,,,,,,,,,0.000000000,0.000079544,25.904838562,0.000000000,25.195526123,21.599884033,,,,,,,,,,,,
1766087268.970421,0.000000000,0.000007160,25.927682877,0.000000000,24.978332520,22.480590820,,,,,,,,,,,,,,,,,,,,,,,,,,,,,,
1766087268.978174,,,,,,,,,,,,,0.000000000,0.000000000,25.916261673,0.000000000,25.825195313,21.800628662,,,,,,,,,,,,,,,,,,
1766087268.980951,,,,,,,,,,,,,,,,,,,,,,,,,0.000000000,0.000000000,25.920829773,0.000000000,24.982513428,22.509948730,,,,,,
1766087268.988117,,,,,,,0.000000000,0.000000000,25.913976669,0.000000000,25.771453857,22.621673584,,,,,,,,,,,,,,,,,,,,,,,,
1766087268.989588,,,,,,,,,,,,,,,,,,,,,,,,,,,,,,,0.000000000,0.000000000,25.932250977,0.000000000,25.108947754,22.422058105
1766087269.068064,,,,,,,,,,,,,,,,,,,0.000000000,0.000027721,25.911691666,0.000000000,25.197113037,21.599884033,,,,,,,,,,,,
1766087269.071835,0.000000000,0.000000000,25.932250977,0.000000000,24.977722168,22.480590820,,,,,,,,,,,,,,,,,,,,,,,,,,,,,,
1766087269.077951,,,,,,,,,,,,,0.000000000,0.000000000,25.918544769,0.000000000,25.824798584,21.800628662,,,,,,,,,,,,,,,,,,
1766087269.080874,,,,,,,,,,,,,,,,,,,,,,,,,0.000000000,0.000000000,25.907123566,0.000000000,24.980743408,22.509948730,,,,,,
1766087269.088128,,,,,,,0.000000000,0.000000000,25.923114777,0.000000000,25.771087646,22.621673584,,,,,,,,,,,,,,,,,,,,,,,,
1766087269.089562,,,,,,,,,,,,,,,,,,,,,,,,,,,,,,,0.000000000,0.000000000,25.936820984,0.000000000,25.110076904,22.422058105
1766087269.163420,,,,,,,,,,,,,,,,,,,0.000000000,0.000000000,25.918544769,0.000000000,25.198089600,21.599884033,,,,,,,,,,,,
1766087269.172509,0.000000000,0.000000000,25.932250977,0.000000000,24.979187012,22.480590820,,,,,,,,,,,,,,,,,,,,,,,,,,,,,,
1766087269.178081,,,,,,,,,,,,,0.000000000,0.000000000,25.941389084,0.000000000,25.827301025,21.800628662,,,,,,,,,,,,,,,,,,
1766087269.180865,,,,,,,,,,,,,,,,,,,,,,,,,0.000000000,-0.000000000,25.907123566,0.000000000,24.983093262,22.509948730,,,,,,
1766087269.188227,,,,,,,0.000000000,0.000000000,25.927682877,0.000000000,25.771240234,22.621673584,,,,,,,,,,,,,,,,,,,,,,,,
1766087269.189586,,,,,,,,,,,,,,,,,,,,,,,,,,,,,,,0.000000000,0.000000000,25.936820984,0.000000000,25.108734131,22.422058105
1766087269.263478,,,,,,,,,,,,,,,,,,,0.000000000,0.000000000,25.916261673,0.000000000,25.195678711,21.599884033,,,,,,,,,,,,
1766087269.270501,0.000000000,0.000000000,25.943674088,0.000000000,24.980895996,22.480590820,,,,,,,,,,,,,,,,,,,,,,,,,,,,,,
1766087269.277087,,,,,,,,,,,,,0.000000000,0.000000000,25.941389084,0.000000000,25.828857422,21.800628662,,,,,,,,,,,,,,,,,,
1766087269.286504,,,,,,,,,,,,,,,,,,,,,,,,,0.000000000,0.000000000,25.897985458,0.000000000,24.981353760,22.509948730,,,,,,
1766087269.288800,,,,,,,0.000000000,0.000020730,25.900270462,0.000000000,25.771759033,22.621673584,,,,,,,,,,,,,,,,,,,,,,,,
1766087269.291692,,,,,,,,,,,,,,,,,,,,,,,,,,,,,,,0.000000000,0.000000000,25.936820984,0.000000000,25.110473633,22.422058105
1766087269.363261,,,,,,,,,,,,,,,,,,,0.000000000,0.000000000,25.925397873,0.000000000,25.198028564,21.599884033,,,,,,,,,,,,
1766087269.370505,0.000000000,0.000000000,25.943674088,0.000000000,24.980712891,22.480590820,,,,,,,,,,,,,,,,,,,,,,,,,,,,,,
1766087269.377124,,,,,,,,,,,,,0.000000000,0.000000000,25.916261673,0.000000000,25.827087402,21.800628662,,,,,,,,,,,,,,,,,,
1766087269.380192,,,,,,,,,,,,,,,,,,,,,,,,,0.000000000,0.000000000,25.904838562,0.000000000,24.983917236,22.509948730,,,,,,
1766087269.388924,,,,,,,0.000000000,0.000000000,25.895702362,0.000000000,25.772277832,22.621673584,,,,,,,,,,,,,,,,,,,,,,,,
1766087269.391842,,,,,,,,,,,,,,,,,,,,,,,,,,,,,,,0.000000000,0.000000000,25.939104080,0.000000000,25.110473633,22.422058105
1766087269.463327,,,,,,,,,,,,,,,,,,,0.000000000,0.000000000,25.913976669,0.000000000,25.196777344,21.599884033,,,,,,,,,,,,
1766087269.470513,0.000000000,0.000057863,25.920829773,0.000000000,24.982147217,22.480590820,,,,,,,,,,,,,,,,,,,,,,,,,,,,,,
1766087269.477046,,,,,,,,,,,,,0.000000000,0.000000000,25.918544769,0.000000000,25.827880859,21.800628662,,,,,,,,,,,,,,,,,,
1766087269.480119,,,,,,,,,,,,,,,,,,,,,,,,,0.000000000,-0.000000000,25.904838562,0.000000000,24.984741211,22.509948730,,,,,,
1766087269.488239,,,,,,,0.000000000,0.000000000,25.893417358,0.000000000,25.772155762,22.621673584,,,,,,,,,,,,,,,,,,,,,,,,
1766087269.494568,,,,,,,,,,,,,,,,,,,,,,,,,,,,,,,0.000000000,0.000011589,25.934535980,0.000000000,25.110595703,22.422058105
1766087269.562222,,,,,,,,,,,,,,,,,,,0.000000000,0.000000000,25.927682877,0.000000000,25.197357178,21.599884033,,,,,,,,,,,,
1766087269.569638,0.000000000,0.000083707,25.925397873,0.000000000,24.980255127,22.480590820,,,,,,,,,,,,,,,,,,,,,,,,,,,,,,
1766087269.577059,,,,,,,,,,,,,0.000000000,0.000022763,25.920829773,0.000000000,25.829071045,21.800628662,,,,,,,,,,,,,,,,,,
1766087269.580118,,,,,,,,,,,,,,,,,,,,,,,,,0.000000000,-0.000000000,25.904838562,0.000000000,24.984466553,22.509948730,,,,,,
1766087269.586392,,,,,,,0.000000000,0.000000000,25.902555466,0.000000000,25.774017334,22.621673584,,,,,,,,,,,,,,,,,,,,,,,,
1766087269.588664,,,,,,,,,,,,,,,,,,,,,,,,,,,,,,,0.000000000,0.000000000,25.941389084,0.000000000,25.108856201,22.422058105
1766087269.662069,,,,,,,,,,,,,,,,,,,0.000000000,0.000104161,26.519336700,0.000000000,25.198883057,21.599884033,,,,,,,,,,,,
1766087269.669556,0.000000000,0.000000000,26.526189804,0.000000000,24.980834961,22.480590820,,,,,,,,,,,,,,,,,,,,,,,,,,,,,,
1766087269.677074,,,,,,,,,,,,,0.000000000,-0.000000000,26.530757904,0.000000000,25.830383301,21.800628662,,,,,,,,,,,,,,,,,,
1766087269.680027,,,,,,,,,,,,,,,,,,,,,,,,,0.000000000,0.000000000,26.542181015,0.000000000,24.985656738,22.509735107,,,,,,
1766087269.686185,,,,,,,0.000000000,0.000000000,26.523904800,0.000000000,25.773468018,22.621673584,,,,,,,,,,,,,,,,,,,,,,,,
1766087269.688654,,,,,,,,,,,,,,,,,,,,,,,,,,,,,,,0.000000000,0.000000000,26.569593430,0.000000000,25.110412598,22.422058105
1766087269.762250,,,,,,,,,,,,,,,,,,,0.000000000,0.000000000,25.964233398,0.000000000,25.201232910,21.599395752,,,,,,,,,,,,
1766087269.771114,0.000000000,0.000190817,25.952810287,0.000000000,24.981994629,22.480590820,,,,,,,,,,,,,,,,,,,,,,,,,,,,,,
1766087269.777038,,,,,,,,,,,,,0.000000000,0.000000000,25.948242188,0.000000000,25.829498291,21.800628662,,,,,,,,,,,,,,,,,,
1766087269.780165,,,,,,,,,,,,,,,,,,,,,,,,,0.000000000,0.000000000,25.927682877,0.000000000,24.984710693,22.509613037,,,,,,
1766087269.786219,,,,,,,0.000000000,0.000000000,25.916261673,0.000000000,25.774780273,22.621673584,,,,,,,,,,,,,,,,,,,,,,,,
1766087269.788667,,,,,,,,,,,,,,,,,,,,,,,,,,,,,,,0.000000000,0.000000000,25.955095291,0.000000000,25.111541748,22.422058105
1766087269.862292,,,,,,,,,,,,,,,,,,,0.000000000,0.000000000,25.909408569,0.000000000,25.200286865,21.599395752,,,,,,,,,,,,
1766087269.871759,0.000000000,-0.000000000,25.918544769,0.000000000,24.982025146,22.480590820,,,,,,,,,,,,,,,,,,,,,,,,,,,,,,
1766087269.877646,,,,,,,,,,,,,0.000000000,0.000000000,25.932250977,0.000000000,25.828369141,21.800628662,,,,,,,,,,,,,,,,,,
1766087269.880574,,,,,,,,,,,,,,,,,,,,,,,,,0.000000000,0.000000000,25.904838562,0.000000000,24.984100342,22.509613037,,,,,,
1766087269.886180,,,,,,,0.000000000,0.000000000,25.916261673,0.000000000,25.777099609,22.621673584,,,,,,,,,,,,,,,,,,,,,,,,
1766087269.888569,,,,,,,,,,,,,,,,,,,,,,,,,,,,,,,0.000000000,0.000000000,25.927682877,0.000000000,25.112274170,22.422058105
1766087269.962270,,,,,,,,,,,,,,,,,,,0.000000000,0.000020068,25.913976669,0.000000000,25.200988770,21.599395752,,,,,,,,,,,,
1766087269.969478,0.000000000,0.000028248,25.929967880,0.000000000,24.984191895,22.479583740,,,,,,,,,,,,,,,,,,,,,,,,,,,,,,
1766087269.979186,,,,,,,,,,,,,0.000000000,0.000000000,25.907123566,0.000000000,25.830963135,21.800628662,,,,,,,,,,,,,,,,,,
1766087269.981575,,,,,,,,,,,,,,,,,,,,,,,,,0.000000000,0.000000000,25.913976669,0.000000000,24.984191895,22.509613037,,,,,,
1766087269.986207,,,,,,,0.000000000,0.000000000,25.911691666,0.000000000,25.776092529,22.621673584,,,,,,,,,,,,,,,,,,,,,,,,
1766087269.988621,,,,,,,,,,,,,,,,,,,,,,,,,,,,,,,0.000000000,0.000000000,25.939104080,0.000000000,25.110321045,22.422058105
1766087270.062593,,,,,,,,,,,,,,,,,,,0.000000000,0.000000000,25.920829773,0.000000000,25.200561523,21.599395752,,,,,,,,,,,,
1766087270.069881,0.000000000,0.000000000,25.925397873,0.000000000,24.982849121,22.478729248,,,,,,,,,,,,,,,,,,,,,,,,,,,,,,
1766087270.080528,,,,,,,,,,,,,0.000000000,0.000049990,25.911691666,0.000000000,25.830383301,21.800628662,,,,,,,,,,,,,,,,,,
1766087270.082868,,,,,,,,,,,,,,,,,,,,,,,,,0.000000000,0.000000000,25.925397873,0.000000000,24.983795166,22.509613037,,,,,,
1766087270.087758,,,,,,,0.000000000,0.000034646,25.904838562,0.000000000,25.776702881,22.620727539,,,,,,,,,,,,,,,,,,,,,,,,
1766087270.090160,,,,,,,,,,,,,,,,,,,,,,,,,,,,,,,0.000000000,0.000083483,25.934535980,0.000000000,25.111816406,22.422058105
1766087270.162125,,,,,,,,,,,,,,,,,,,0.000000000,0.000049890,25.918544769,0.000000000,25.200561523,21.599395752,,,,,,,,,,,,
1766087270.169497,0.000000000,0.000011053,25.923114777,0.000000000,24.982971191,22.478729248,,,,,,,,,,,,,,,,,,,,,,,,,,,,,,
1766087270.177046,,,,,,,,,,,,,0.000000000,0.000000000,25.911691666,0.000000000,25.832519531,21.800628662,,,,,,,,,,,,,,,,,,
1766087270.179996,,,,,,,,,,,,,,,,,,,,,,,,,0.000000000,0.000000000,25.907123566,0.000000000,24.985290527,22.509613037,,,,,,
1766087270.188680,,,,,,,0.000000000,0.000000000,25.904838562,0.000000000,25.775634766,22.619903564,,,,,,,,,,,,,,,,,,,,,,,,
1766087270.194606,,,,,,,,,,,,,,,,,,,,,,,,,,,,,,,0.000000000,0.000000000,25.936820984,0.000000000,25.112640381,22.422058105
1766087270.262608,,,,,,,,,,,,,,,,,,,0.000000000,0.000232937,25.932250977,0.000000000,25.201965332,21.599395752,,,,,,,,,,,,
1766087270.269605,0.000000000,0.000003468,25.932250977,0.000000000,24.981719971,22.478729248,,,,,,,,,,,,,,,,,,,,,,,,,,,,,,
1766087270.277041,,,,,,,,,,,,,0.000000000,0.000000000,25.929967880,0.000000000,25.832855225,21.800628662,,,,,,,,,,,,,,,,,,
1766087270.279894,,,,,,,,,,,,,,,,,,,,,,,,,0.000000000,0.000000000,25.923114777,0.000000000,24.985473633,22.508880615,,,,,,
1766087270.287155,,,,,,,0.000000000,0.000026988,25.902555466,0.000000000,25.775543213,22.619903564,,,,,,,,,,,,,,,,,,,,,,,,
1766087270.288636,,,,,,,,,,,,,,,,,,,,,,,,,,,,,,,0.000000000,0.000021682,25.945957184,0.000000000,25.112335205,22.422058105
1766087270.362425,,,,,,,,,,,,,,,,,,,0.000000000,0.000000000,25.927682877,0.000000000,25.201843262,21.599395752,,,,,,,,,,,,
1766087270.369509,0.000000000,0.000000000,25.913976669,0.000000000,24.981872559,22.478729248,,,,,,,,,,,,,,,,,,,,,,,,,,,,,,
1766087270.377035,,,,,,,,,,,,,0.000000000,0.000000000,25.948242188,0.000000000,25.830383301,21.800109863,,,,,,,,,,,,,,,,,,
1766087270.380106,,,,,,,,,,,,,,,,,,,,,,,,,0.000000000,0.000000000,25.916261673,0.000000000,24.985870361,22.508880615,,,,,,
1766087270.387342,,,,,,,0.000000000,0.000000000,25.907123566,0.000000000,25.777557373,22.619903564,,,,,,,,,,,,,,,,,,,,,,,,
1766087270.388600,,,,,,,,,,,,,,,,,,,,,,,,,,,,,,,0.000000000,0.000000000,25.941389084,0.000000000,25.115631104,22.422058105
1766087270.462263,,,,,,,,,,,,,,,,,,,0.000000000,0.000000000,25.911691666,0.000000000,25.203155518,21.599395752,,,,,,,,,,,,
1766087270.469489,0.000000000,0.000032934,25.927682877,0.000000000,24.983856201,22.478729248,,,,,,,,,,,,,,,,,,,,,,,,,,,,,,
1766087270.477171,,,,,,,,,,,,,0.000000000,0.000010695,25.927682877,0.000000000,25.832214355,21.800109863,,,,,,,,,,,,,,,,,,
1766087270.479973,,,,,,,,,,,,,,,,,,,,,,,,,0.000000000,-0.000000000,25.923114777,0.000000000,24.984680176,22.508880615,,,,,,
1766087270.487232,,,,,,,0.000000000,0.000019307,25.911691666,0.000000000,25.777496338,22.619903564,,,,,,,,,,,,,,,,,,,,,,,,
1766087270.488602,,,,,,,,,,,,,,,,,,,,,,,,,,,,,,,0.000000000,0.000003182,25.934535980,0.000000000,25.114471436,22.422058105
1766087270.565197,,,,,,,,,,,,,,,,,,,0.000000000,0.000048109,25.913976669,0.000000000,25.201721191,21.599395752,,,,,,,,,,,,
1766087270.569475,0.000000000,0.000000000,25.929967880,0.000000000,24.984558105,22.478729248,,,,,,,,,,,,,,,,,,,,,,,,,,,,,,
1766087270.576075,,,,,,,,,,,,,0.000000000,0.000000000,25.920829773,0.000000000,25.831268311,21.800109863,,,,,,,,,,,,,,,,,,
1766087270.579075,,,,,,,,,,,,,,,,,,,,,,,,,0.000000000,0.000000000,25.911691666,0.000000000,24.986419678,22.508880615,,,,,,
1766087270.587200,,,,,,,0.000000000,0.000000000,25.918544769,0.000000000,25.776824951,22.619903564,,,,,,,,,,,,,,,,,,,,,,,,
1766087270.588607,,,,,,,,,,,,,,,,,,,,,,,,,,,,,,,0.000000000,0.000000000,25.952810287,0.000000000,25.114105225,22.422058105
1766087270.668365,,,,,,,,,,,,,,,,,,,0.000000000,0.000274434,25.927682877,0.000000000,25.201782227,21.599395752,,,,,,,,,,,,
1766087270.670752,0.000000000,0.000000000,25.913976669,0.000000000,24.983032227,22.478729248,,,,,,,,,,,,,,,,,,,,,,,,,,,,,,
1766087270.676021,,,,,,,,,,,,,0.000000000,0.000000000,25.902555466,0.000000000,25.834655762,21.800018311,,,,,,,,,,,,,,,,,,
1766087270.679109,,,,,,,,,,,,,,,,,,,,,,,,,0.000000000,0.000000000,25.907123566,0.000000000,24.989196777,22.508880615,,,,,,
1766087270.685195,,,,,,,0.000000000,0.000115072,25.909408569,0.000000000,25.777496338,22.619903564,,,,,,,,,,,,,,,,,,,,,,,,
1766087270.687644,,,,,,,,,,,,,,,,,,,,,,,,,,,,,,,0.000000000,0.000000000,25.934535980,0.000000000,25.115905762,22.422058105
1766087270.762176,,,,,,,,,,,,,,,,,,,0.000000000,0.000000000,25.925397873,0.000000000,25.201782227,21.599395752,,,,,,,,,,,,
1766087270.771814,0.000000000,0.000000000,25.923114777,0.000000000,24.984130859,22.478729248,,,,,,,,,,,,,,,,,,,,,,,,,,,,,,
1766087270.776136,,,,,,,,,,,,,0.000000000,0.000000000,25.932250977,0.000000000,25.833526611,21.799987793,,,,,,,,,,,,,,,,,,
1766087270.779264,,,,,,,,,,,,,,,,,,,,,,,,,0.000000000,0.000000000,25.909408569,0.000000000,24.987609863,22.508880615,,,,,,
1766087270.785274,,,,,,,0.000000000,0.000000000,25.900270462,0.000000000,25.779113770,22.619903564,,,,,,,,,,,,,,,,,,,,,,,,
1766087270.787636,,,,,,,,,,,,,,,,,,,,,,,,,,,,,,,0.000000000,-0.000000000,25.939104080,0.000000000,25.116241455,22.422058105
1766087270.861191,,,,,,,,,,,,,,,,,,,0.000000000,0.000000000,25.925397873,0.000000000,25.203491211,21.599395752,,,,,,,,,,,,
1766087270.868533,0.000000000,0.000084145,25.916261673,0.000000000,24.983489990,22.478729248,,,,,,,,,,,,,,,,,,,,,,,,,,,,,,
1766087270.876221,,,,,,,,,,,,,0.000000000,0.000052613,25.920829773,0.000000000,25.832916260,21.799987793,,,,,,,,,,,,,,,,,,
1766087270.883368,,,,,,,,,,,,,,,,,,,,,,,,,0.000000000,0.000058632,25.920829773,0.000000000,24.988586426,22.508880615,,,,,,
1766087270.886723,,,,,,,0.000000000,0.000000000,25.891132355,0.000000000,25.777679443,22.619903564,,,,,,,,,,,,,,,,,,,,,,,,
1766087270.890656,,,,,,,,,,,,,,,,,,,,,,,,,,,,,,,0.000000000,0.000000000,25.948242188,0.000000000,25.116699219,22.422058105
1766087270.961323,,,,,,,,,,,,,,,,,,,0.000000000,0.000000000,25.920829773,0.000000000,25.203918457,21.599395752,,,,,,,,,,,,
1766087270.968460,0.000000000,0.000000000,25.936820984,0.000000000,24.986175537,22.478729248,,,,,,,,,,,,,,,,,,,,,,,,,,,,,,
1766087270.976032,,,,,,,,,,,,,0.000000000,0.000000000,25.923114777,0.000000000,25.833557129,21.799987793,,,,,,,,,,,,,,,,,,
1766087270.979058,,,,,,,,,,,,,,,,,,,,,,,,,0.000000000,0.000000000,25.923114777,0.000000000,24.985809326,22.508880615,,,,,,
1766087270.985284,,,,,,,0.000000000,0.000000000,25.907123566,0.000000000,25.779815674,22.619903564,,,,,,,,,,,,,,,,,,,,,,,,
1766087270.987634,,,,,,,,,,,,,,,,,,,,,,,,,,,,,,,0.000000000,0.000044304,25.939104080,0.000000000,25.117248535,22.422058105
1766087271.061145,,,,,,,,,,,,,,,,,,,0.000000000,0.000000000,25.904838562,0.000000000,25.203521729,21.599395752,,,,,,,,,,,,
1766087271.068517,0.000000000,0.000000000,25.918544769,0.000000000,24.985595703,22.478729248,,,,,,,,,,,,,,,,,,,,,,,,,,,,,,
1766087271.076185,,,,,,,,,,,,,0.000000000,0.000000000,25.932250977,0.000000000,25.835052490,21.799987793,,,,,,,,,,,,,,,,,,
1766087271.079094,,,,,,,,,,,,,,,,,,,,,,,,,0.000000000,-0.000000000,25.916261673,0.000000000,24.988922119,22.508880615,,,,,,
1766087271.085253,,,,,,,0.000000000,0.000149660,25.886564255,0.000000000,25.779937744,22.619903564,,,,,,,,,,,,,,,,,,,,,,,,
1766087271.087651,,,,,,,,,,,,,,,,,,,,,,,,,,,,,,,0.000000000,0.000000000,25.939104080,0.000000000,25.116546631,22.422058105
1766087271.163289,,,,,,,,,,,,,,,,,,,0.000000000,0.000000000,25.925397873,0.000000000,25.204284668,21.599395752,,,,,,,,,,,,
1766087271.168494,0.000000000,0.000108183,25.952810287,0.000000000,24.986114502,22.478729248,,,,,,,,,,,,,,,,,,,,,,,,,,,,,,
1766087271.176043,,,,,,,,,,,,,0.000000000,0.000000000,25.932250977,0.000000000,25.837951660,21.799987793,,,,,,,,,,,,,,,,,,
1766087271.179099,,,,,,,,,,,,,,,,,,,,,,,,,0.000000000,0.000000000,25.923114777,0.000000000,24.986724854,22.508880615,,,,,,
1766087271.185271,,,,,,,0.000000000,0.000000000,25.913976669,0.000000000,25.781341553,22.619903564,,,,,,,,,,,,,,,,,,,,,,,,
1766087271.187657,,,,,,,,,,,,,,,,,,,,,,,,,,,,,,,0.000000000,0.000000000,25.925397873,0.000000000,25.117706299,22.422058105
1766087271.261284,,,,,,,,,,,,,,,,,,,0.000000000,-0.000000000,25.923114777,0.000000000,25.206024170,21.599395752,,,,,,,,,,,,
1766087271.268949,0.000000000,0.000000000,25.932250977,0.000000000,24.986389160,22.478729248,,,,,,,,,,,,,,,,,,,,,,,,,,,,,,
1766087271.278346,,,,,,,,,,,,,0.000000000,0.000000000,25.918544769,0.000000000,25.837463379,21.799987793,,,,,,,,,,,,,,,,,,
1766087271.280724,,,,,,,,,,,,,,,,,,,,,,,,,0.000000000,0.000000000,25.913976669,0.000000000,24.989013672,22.508880615,,,,,,
1766087271.285239,,,,,,,0.000000000,0.000000000,25.918544769,0.000000000,25.780517578,22.619903564,,,,,,,,,,,,,,,,,,,,,,,,
1766087271.287669,,,,,,,,,,,,,,,,,,,,,,,,,,,,,,,0.000000000,0.000000000,25.936820984,0.000000000,25.117370605,22.422058105
1766087271.361313,,,,,,,,,,,,,,,,,,,0.000000000,0.000104710,25.920829773,0.000000000,25.204864502,21.599395752,,,,,,,,,,,,
1766087271.368446,0.000000000,0.000077659,25.927682877,0.000000000,24.986511230,22.478729248,,,,,,,,,,,,,,,,,,,,,,,,,,,,,,
1766087271.378008,,,,,,,,,,,,,0.000000000,0.000000000,25.911691666,0.000000000,25.838348389,21.799987793,,,,,,,,,,,,,,,,,,
1766087271.382472,,,,,,,,,,,,,,,,,,,,,,,,,0.000000000,-0.000000000,25.923114777,0.000000000,24.989715576,22.508880615,,,,,,
1766087271.386714,,,,,,,0.000000000,0.000000000,25.900270462,0.000000000,25.783111572,22.619903564,,,,,,,,,,,,,,,,,,,,,,,,
1766087271.388135,,,,,,,,,,,,,,,,,,,,,,,,,,,,,,,0.000000000,0.000152420,25.932250977,0.000000000,25.117340088,22.422058105
1766087271.461263,,,,,,,,,,,,,,,,,,,0.000000000,0.000000000,25.904838562,0.000000000,25.208099365,21.599395752,,,,,,,,,,,,
1766087271.468467,0.000000000,0.000085552,25.925397873,0.000000000,24.986175537,22.478729248,,,,,,,,,,,,,,,,,,,,,,,,,,,,,,
1766087271.476184,,,,,,,,,,,,,0.000000000,0.000000000,25.927682877,0.000000000,25.836914063,21.799987793,,,,,,,,,,,,,,,,,,
1766087271.479010,,,,,,,,,,,,,,,,,,,,,,,,,0.000000000,0.000000000,25.897985458,0.000000000,24.992523193,22.508880615,,,,,,
1766087271.486313,,,,,,,0.000000000,0.000000000,25.927682877,0.000000000,25.784179688,22.619903564,,,,,,,,,,,,,,,,,,,,,,,,
1766087271.493624,,,,,,,,,,,,,,,,,,,,,,,,,,,,,,,0.000000000,0.000003548,25.934535980,0.000000000,25.118041992,22.422058105
1766087271.561135,,,,,,,,,,,,,,,,,,,0.000000000,0.000008273,25.929967880,0.000000000,25.209075928,21.599395752,,,,,,,,,,,,
1766087271.568486,0.000000000,0.000043526,25.918544769,0.000000000,24.988128662,22.478729248,,,,,,,,,,,,,,,,,,,,,,,,,,,,,,
1766087271.576200,,,,,,,,,,,,,0.000000000,0.000000000,25.932250977,0.000000000,25.839355469,21.799987793,,,,,,,,,,,,,,,,,,
1766087271.578882,,,,,,,,,,,,,,,,,,,,,,,,,0.000000000,0.000001126,25.877426147,0.000000000,24.990722656,22.508880615,,,,,,
1766087271.586226,,,,,,,0.000000000,0.000000000,25.902555466,0.000000000,25.783935547,22.619903564,,,,,,,,,,,,,,,,,,,,,,,,
1766087271.593596,,,,,,,,,,,,,,,,,,,,,,,,,,,,,,,0.000000000,0.000000000,25.929967880,0.000000000,25.118286133,22.422058105
1766087271.661376,,,,,,,,,,,,,,,,,,,0.000000000,-0.000000000,25.918544769,0.000000000,25.206726074,21.598327637,,,,,,,,,,,,
1766087271.668521,0.000000000,0.000000000,25.923114777,0.000000000,24.985687256,22.478729248,,,,,,,,,,,,,,,,,,,,,,,,,,,,,,
1766087271.675945,,,,,,,,,,,,,0.000000000,0.000038774,25.923114777,0.000000000,25.839172363,21.799987793,,,,,,,,,,,,,,,,,,
1766087271.678872,,,,,,,,,,,,,,,,,,,,,,,,,0.000000000,0.000000000,25.904838562,0.000000000,24.990844727,22.508880615,,,,,,
1766087271.686321,,,,,,,0.000000000,0.000000000,25.952810287,0.000000000,25.784851074,22.619903564,,,,,,,,,,,,,,,,,,,,,,,,
1766087271.687593,,,,,,,,,,,,,,,,,,,,,,,,,,,,,,,0.000000000,0.000000000,25.945957184,0.000000000,25.117462158,22.422058105
1766087271.765245,,,,,,,,,,,,,,,,,,,0.000000000,0.000000000,25.916261673,0.000000000,25.209564209,21.598327637,,,,,,,,,,,,
1766087271.770270,0.000000000,0.000000000,25.925397873,0.000000000,24.986785889,22.478729248,,,,,,,,,,,,,,,,,,,,,,,,,,,,,,
1766087271.776045,,,,,,,,,,,,,0.000000000,0.000000000,25.907123566,0.000000000,25.841461182,21.799987793,,,,,,,,,,,,,,,,,,
1766087271.779005,,,,,,,,,,,,,,,,,,,,,,,,,0.000000000,0.000000000,25.907123566,0.000000000,24.992248535,22.505645752,,,,,,
1766087271.786346,,,,,,,0.000000000,0.000000000,25.879711151,0.000000000,25.784942627,22.619903564,,,,,,,,,,,,,,,,,,,,,,,,
1766087271.787632,,,,,,,,,,,,,,,,,,,,,,,,,,,,,,,0.000000000,0.000000000,25.932250977,0.000000000,25.118957520,22.422058105
1766087271.861228,,,,,,,,,,,,,,,,,,,0.000000000,0.000005227,25.923114777,0.000000000,25.208740234,21.598327637,,,,,,,,,,,,
1766087271.870598,0.000000000,0.000000000,25.923114777,0.000000000,24.987609863,22.478729248,,,,,,,,,,,,,,,,,,,,,,,,,,,,,,
1766087271.875093,,,,,,,,,,,,,0.000000000,0.000000000,25.955095291,0.000000000,25.841064453,21.799987793,,,,,,,,,,,,,,,,,,
1766087271.878086,,,,,,,,,,,,,,,,,,,,,,,,,0.000000000,0.000051652,25.918544769,0.000000000,24.992736816,22.505218506,,,,,,
1766087271.886203,,,,,,,0.000000000,0.000000000,25.929967880,0.000000000,25.786621094,22.619903564,,,,,,,,,,,,,,,,,,,,,,,,
1766087271.887639,,,,,,,,,,,,,,,,,,,,,,,,,,,,,,,0.000000000,0.000000000,25.945957184,0.000000000,25.121215820,22.422058105
1766087271.961392,,,,,,,,,,,,,,,,,,,0.000000000,0.000000000,25.916261673,0.000000000,25.209075928,21.598327637,,,,,,,,,,,,
1766087271.968593,0.000000000,0.000000000,25.929967880,0.000000000,24.988922119,22.478729248,,,,,,,,,,,,,,,,,,,,,,,,,,,,,,
1766087271.975085,,,,,,,,,,,,,0.000000000,0.000069876,25.916261673,0.000000000,25.840972900,21.799987793,,,,,,,,,,,,,,,,,,
1766087271.984344,,,,,,,,,,,,,,,,,,,,,,,,,0.000000000,0.000000000,25.918544769,0.000000000,24.990844727,22.505187988,,,,,,
1766087271.985712,,,,,,,0.000000000,0.000000000,25.845445633,0.000000000,25.785827637,22.619903564,,,,,,,,,,,,,,,,,,,,,,,,
1766087271.989664,,,,,,,,,,,,,,,,,,,,,,,,,,,,,,,0.000000000,0.000000000,25.941389084,0.000000000,25.120483398,22.422058105
1766087272.061412,,,,,,,,,,,,,,,,,,,0.000000000,0.000000000,25.932250977,0.000000000,25.211273193,21.598327637,,,,,,,,,,,,
1766087272.068520,0.000000000,0.000002983,25.932250977,0.000000000,24.986328125,22.478729248,,,,,,,,,,,,,,,,,,,,,,,,,,,,,,
1766087272.075178,,,,,,,,,,,,,0.000000000,0.000000000,25.929967880,0.000000000,25.841247559,21.799987793,,,,,,,,,,,,,,,,,,
1766087272.078289,,,,,,,,,,,,,,,,,,,,,,,,,0.000000000,0.000000000,25.918544769,0.000000000,24.992584229,22.505187988,,,,,,
1766087272.086259,,,,,,,0.000000000,0.000000000,25.918544769,0.000000000,25.787719727,22.619903564,,,,,,,,,,,,,,,,,,,,,,,,
1766087272.091156,,,,,,,,,,,,,,,,,,,,,,,,,,,,,,,0.000000000,0.000103236,25.916261673,0.000000000,25.119842529,22.422058105
1766087272.160275,,,,,,,,,,,,,,,,,,,0.000000000,0.000002408,25.932250977,0.000000000,25.209167480,21.598327637,,,,,,,,,,,,
1766087272.167826,0.000000000,0.000000000,25.918544769,0.000000000,24.989471436,22.478729248,,,,,,,,,,,,,,,,,,,,,,,,,,,,,,
1766087272.175153,,,,,,,,,,,,,0.000000000,0.000056742,25.911691666,0.000000000,25.840240479,21.799987793,,,,,,,,,,,,,,,,,,
1766087272.178307,,,,,,,,,,,,,,,,,,,,,,,,,0.000000000,0.000000000,25.911691666,0.000000000,24.993225098,22.505187988,,,,,,
1766087272.185260,,,,,,,0.000000000,0.000000000,25.911691666,0.000000000,25.786102295,22.619903564,,,,,,,,,,,,,,,,,,,,,,,,
1766087272.192708,,,,,,,,,,,,,,,,,,,,,,,,,,,,,,,0.000000000,0.000000000,25.925397873,0.000000000,25.119720459,22.422058105
1766087272.260259,,,,,,,,,,,,,,,,,,,0.000000000,0.000091621,25.923114777,0.000000000,25.209167480,21.598327637,,,,,,,,,,,,
1766087272.267659,0.000000000,0.000000000,25.923114777,0.000000000,24.988281250,22.478729248,,,,,,,,,,,,,,,,,,,,,,,,,,,,,,
1766087272.275192,,,,,,,,,,,,,0.000000000,0.000000000,25.909408569,0.000000000,25.841613770,21.799987793,,,,,,,,,,,,,,,,,,
1766087272.278243,,,,,,,,,,,,,,,,,,,,,,,,,0.000000000,0.000000000,25.913976669,0.000000000,24.992126465,22.505187988,,,,,,
1766087272.284364,,,,,,,0.000000000,0.000000000,25.920829773,0.000000000,25.787292480,22.619903564,,,,,,,,,,,,,,,,,,,,,,,,
1766087272.286857,,,,,,,,,,,,,,,,,,,,,,,,,,,,,,,0.000000000,0.000000000,25.927682877,0.000000000,25.118499756,22.422058105
1766087272.360232,,,,,,,,,,,,,,,,,,,0.000000000,0.000000000,25.943674088,0.000000000,25.210418701,21.598327637,,,,,,,,,,,,
1766087272.367524,0.000000000,0.000000000,25.927682877,0.000000000,24.990692139,22.478729248,,,,,,,,,,,,,,,,,,,,,,,,,,,,,,
1766087272.375329,,,,,,,,,,,,,0.000000000,0.000000000,25.932250977,0.000000000,25.843566895,21.799987793,,,,,,,,,,,,,,,,,,
1766087272.378270,,,,,,,,,,,,,,,,,,,,,,,,,0.000000000,0.000000000,25.891132355,0.000000000,24.992980957,22.505187988,,,,,,
1766087272.384343,,,,,,,0.000000000,0.000047697,25.877426147,0.000000000,25.788726807,22.619903564,,,,,,,,,,,,,,,,,,,,,,,,
1766087272.386646,,,,,,,,,,,,,,,,,,,,,,,,,,,,,,,0.000000000,0.000000000,25.927682877,0.000000000,25.119934082,22.422058105
1766087272.459947,,,,,,,,,,,,,,,,,,,0.000000000,0.000000000,25.943674088,0.000000000,25.211395264,21.598327637,,,,,,,,,,,,
1766087272.467510,0.000000000,0.000024414,25.925397873,0.000000000,24.989685059,22.478729248,,,,,,,,,,,,,,,,,,,,,,,,,,,,,,
1766087272.475146,,,,,,,,,,,,,0.000000000,0.000000000,25.907123566,0.000000000,25.844207764,21.799987793,,,,,,,,,,,,,,,,,,
1766087272.478107,,,,,,,,,,,,,,,,,,,,,,,,,0.000000000,0.000000000,25.904838562,0.000000000,24.994110107,22.505187988,,,,,,
1766087272.484304,,,,,,,0.000000000,0.000011512,25.929967880,0.000000000,25.789581299,22.618835449,,,,,,,,,,,,,,,,,,,,,,,,
1766087272.486677,,,,,,,,,,,,,,,,,,,,,,,,,,,,,,,0.000000000,0.000000000,25.950527191,0.000000000,25.120788574,22.422058105
1766087272.560358,,,,,,,,,,,,,,,,,,,0.000000000,0.000000000,25.911691666,0.000000000,25.208923340,21.598327637,,,,,,,,,,,,
1766087272.570142,0.000000000,0.000003183,25.927682877,0.000000000,24.989532471,22.478729248,,,,,,,,,,,,,,,,,,,,,,,,,,,,,,
1766087272.575431,,,,,,,,,,,,,0.000000000,0.000000000,25.916261673,0.000000000,25.844146729,21.799987793,,,,,,,,,,,,,,,,,,
1766087272.578647,,,,,,,,,,,,,,,,,,,,,,,,,0.000000000,0.000000000,25.907123566,0.000000000,24.993164063,22.505187988,,,,,,
1766087272.584303,,,,,,,0.000000000,0.000000000,25.913976669,0.000000000,25.786071777,22.618835449,,,,,,,,,,,,,,,,,,,,,,,,
1766087272.586714,,,,,,,,,,,,,,,,,,,,,,,,,,,,,,,0.000000000,0.000057026,25.929967880,0.000000000,25.121307373,22.422058105
1766087272.660473,,,,,,,,,,,,,,,,,,,0.000000000,0.000052135,25.923114777,0.000000000,25.209655762,21.598327637,,,,,,,,,,,,
